$GPGGA,205234.638,5025.644,N,03035.549,E,1,12,1.0,0.0,M,0.0,M,,*68
$GPGSA,A,3,01,02,03,04,05,06,07,08,09,10,11,12,1.0,1.0,1.0*30
$GPRMC,205234.638,A,5025.644,N,03035.549,E,033.0,179.5,100325,000.0,W*73
$GPGGA,205235.638,5025.635,N,03035.549,E,1,12,1.0,0.0,M,0.0,M,,*6F
$GPGSA,A,3,01,02,03,04,05,06,07,08,09,10,11,12,1.0,1.0,1.0*30
$GPRMC,205235.638,A,5025.635,N,03035.549,E,033.0,179.5,100325,000.0,W*74
$GPGGA,205236.638,5025.626,N,03035.549,E,1,12,1.0,0.0,M,0.0,M,,*6E
$GPGSA,A,3,01,02,03,04,05,06,07,08,09,10,11,12,1.0,1.0,1.0*30
$GPRMC,205236.638,A,5025.626,N,03035.549,E,033.0,179.5,100325,000.0,W*75
$GPGGA,205237.638,5025.617,N,03035.549,E,1,12,1.0,0.0,M,0.0,M,,*6D
$GPGSA,A,3,01,02,03,04,05,06,07,08,09,10,11,12,1.0,1.0,1.0*30
$GPRMC,205237.638,A,5025.617,N,03035.549,E,033.0,179.5,100325,000.0,W*76
$GPGGA,205238.638,5025.607,N,03035.549,E,1,12,1.0,0.0,M,0.0,M,,*63
$GPGSA,A,3,01,02,03,04,05,06,07,08,09,10,11,12,1.0,1.0,1.0*30
$GPRMC,205238.638,A,5025.607,N,03035.549,E,033.0,179.5,100325,000.0,W*78
$GPGGA,205239.638,5025.598,N,03035.549,E,1,12,1.0,0.0,M,0.0,M,,*67
$GPGSA,A,3,01,02,03,04,05,06,07,08,09,10,11,12,1.0,1.0,1.0*30
$GPRMC,205239.638,A,5025.598,N,03035.549,E,033.0,179.5,100325,000.0,W*7C
$GPGGA,205240.638,5025.589,N,03035.549,E,1,12,1.0,0.0,M,0.0,M,,*69
$GPGSA,A,3,01,02,03,04,05,06,07,08,09,10,11,12,1.0,1.0,1.0*30
$GPRMC,205240.638,A,5025.589,N,03035.549,E,033.0,179.5,100325,000.0,W*72
$GPGGA,205241.638,5025.580,N,03035.550,E,1,12,1.0,0.0,M,0.0,M,,*69
$GPGSA,A,3,01,02,03,04,05,06,07,08,09,10,11,12,1.0,1.0,1.0*30
$GPRMC,205241.638,A,5025.580,N,03035.550,E,033.0,179.5,100325,000.0,W*72
$GPGGA,205242.638,5025.571,N,03035.550,E,1,12,1.0,0.0,M,0.0,M,,*64
$GPGSA,A,3,01,02,03,04,05,06,07,08,09,10,11,12,1.0,1.0,1.0*30
$GPRMC,205242.638,A,5025.571,N,03035.550,E,033.0,179.5,100325,000.0,W*7F
$GPGGA,205243.638,5025.562,N,03035.550,E,1,12,1.0,0.0,M,0.0,M,,*67
$GPGSA,A,3,01,02,03,04,05,06,07,08,09,10,11,12,1.0,1.0,1.0*30
$GPRMC,205243.638,A,5025.562,N,03035.550,E,033.0,179.5,100325,000.0,W*7C
$GPGGA,205244.638,5025.552,N,03035.550,E,1,12,1.0,0.0,M,0.0,M,,*63
$GPGSA,A,3,01,02,03,04,05,06,07,08,09,10,11,12,1.0,1.0,1.0*30
$GPRMC,205244.638,A,5025.552,N,03035.550,E,033.0,179.5,100325,000.0,W*78
$GPGGA,205245.638,5025.543,N,03035.550,E,1,12,1.0,0.0,M,0.0,M,,*62
$GPGSA,A,3,01,02,03,04,05,06,07,08,09,10,11,12,1.0,1.0,1.0*30
$GPRMC,205245.638,A,5025.543,N,03035.550,E,033.0,179.5,100325,000.0,W*79
$GPGGA,205246.638,5025.534,N,03035.550,E,1,12,1.0,0.0,M,0.0,M,,*61
$GPGSA,A,3,01,02,03,04,05,06,07,08,09,10,11,12,1.0,1.0,1.0*30
$GPRMC,205246.638,A,5025.534,N,03035.550,E,033.0,179.5,100325,000.0,W*7A
$GPGGA,205247.638,5025.525,N,03035.550,E,1,12,1.0,0.0,M,0.0,M,,*60
$GPGSA,A,3,01,02,03,04,05,06,07,08,09,10,11,12,1.0,1.0,1.0*30
$GPRMC,205247.638,A,5025.525,N,03035.550,E,033.0,179.5,100325,000.0,W*7B
$GPGGA,205248.638,5025.516,N,03035.550,E,1,12,1.0,0.0,M,0.0,M,,*6F
$GPGSA,A,3,01,02,03,04,05,06,07,08,09,10,11,12,1.0,1.0,1.0*30
$GPRMC,205248.638,A,5025.516,N,03035.550,E,033.0,179.5,100325,000.0,W*74
$GPGGA,205249.638,5025.507,N,03035.551,E,1,12,1.0,0.0,M,0.0,M,,*6F
$GPGSA,A,3,01,02,03,04,05,06,07,08,09,10,11,12,1.0,1.0,1.0*30
$GPRMC,205249.638,A,5025.507,N,03035.551,E,033.0,179.5,100325,000.0,W*74
$GPGGA,205250.638,5025.497,N,03035.551,E,1,12,1.0,0.0,M,0.0,M,,*6F
$GPGSA,A,3,01,02,03,04,05,06,07,08,09,10,11,12,1.0,1.0,1.0*30
$GPRMC,205250.638,A,5025.497,N,03035.551,E,033.0,179.5,100325,000.0,W*74
$GPGGA,205251.638,5025.488,N,03035.551,E,1,12,1.0,0.0,M,0.0,M,,*60
$GPGSA,A,3,01,02,03,04,05,06,07,08,09,10,11,12,1.0,1.0,1.0*30
$GPRMC,205251.638,A,5025.488,N,03035.551,E,033.0,179.5,100325,000.0,W*7B
$GPGGA,205252.638,5025.479,N,03035.551,E,1,12,1.0,0.0,M,0.0,M,,*6D
$GPGSA,A,3,01,02,03,04,05,06,07,08,09,10,11,12,1.0,1.0,1.0*30
$GPRMC,205252.638,A,5025.479,N,03035.551,E,033.0,179.5,100325,000.0,W*76
$GPGGA,205253.638,5025.470,N,03035.551,E,1,12,1.0,0.0,M,0.0,M,,*65
$GPGSA,A,3,01,02,03,04,05,06,07,08,09,10,11,12,1.0,1.0,1.0*30
$GPRMC,205253.638,A,5025.470,N,03035.551,E,033.0,179.5,100325,000.0,W*7E
$GPGGA,205254.638,5025.461,N,03035.551,E,1,12,1.0,0.0,M,0.0,M,,*62
$GPGSA,A,3,01,02,03,04,05,06,07,08,09,10,11,12,1.0,1.0,1.0*30
$GPRMC,205254.638,A,5025.461,N,03035.551,E,033.0,179.5,100325,000.0,W*79
$GPGGA,205255.638,5025.452,N,03035.551,E,1,12,1.0,0.0,M,0.0,M,,*63
$GPGSA,A,3,01,02,03,04,05,06,07,08,09,10,11,12,1.0,1.0,1.0*30
$GPRMC,205255.638,A,5025.452,N,03035.551,E,033.0,179.5,100325,000.0,W*78
$GPGGA,205256.638,5025.442,N,03035.552,E,1,12,1.0,0.0,M,0.0,M,,*62
$GPGSA,A,3,01,02,03,04,05,06,07,08,09,10,11,12,1.0,1.0,1.0*30
$GPRMC,205256.638,A,5025.442,N,03035.552,E,033.0,179.5,100325,000.0,W*79
$GPGGA,205257.638,5025.433,N,03035.552,E,1,12,1.0,0.0,M,0.0,M,,*65
$GPGSA,A,3,01,02,03,04,05,06,07,08,09,10,11,12,1.0,1.0,1.0*30
$GPRMC,205257.638,A,5025.433,N,03035.552,E,033.0,179.5,100325,000.0,W*7E
$GPGGA,205258.638,5025.424,N,03035.552,E,1,12,1.0,0.0,M,0.0,M,,*6C
$GPGSA,A,3,01,02,03,04,05,06,07,08,09,10,11,12,1.0,1.0,1.0*30
$GPRMC,205258.638,A,5025.424,N,03035.552,E,033.0,179.5,100325,000.0,W*77
$GPGGA,205259.638,5025.415,N,03035.552,E,1,12,1.0,0.0,M,0.0,M,,*6F
$GPGSA,A,3,01,02,03,04,05,06,07,08,09,10,11,12,1.0,1.0,1.0*30
$GPRMC,205259.638,A,5025.415,N,03035.552,E,033.0,179.5,100325,000.0,W*74
$GPGGA,205300.638,5025.406,N,03035.552,E,1,12,1.0,0.0,M,0.0,M,,*60
$GPGSA,A,3,01,02,03,04,05,06,07,08,09,10,11,12,1.0,1.0,1.0*30
$GPRMC,205300.638,A,5025.406,N,03035.552,E,033.0,179.5,100325,000.0,W*7B
$GPGGA,205301.638,5025.396,N,03035.552,E,1,12,1.0,0.0,M,0.0,M,,*6F
$GPGSA,A,3,01,02,03,04,05,06,07,08,09,10,11,12,1.0,1.0,1.0*30
$GPRMC,205301.638,A,5025.396,N,03035.552,E,033.0,179.5,100325,000.0,W*74
$GPGGA,205302.638,5025.387,N,03035.552,E,1,12,1.0,0.0,M,0.0,M,,*6C
$GPGSA,A,3,01,02,03,04,05,06,07,08,09,10,11,12,1.0,1.0,1.0*30
$GPRMC,205302.638,A,5025.387,N,03035.552,E,033.0,179.5,100325,000.0,W*77
$GPGGA,205303.638,5025.378,N,03035.552,E,1,12,1.0,0.0,M,0.0,M,,*6D
$GPGSA,A,3,01,02,03,04,05,06,07,08,09,10,11,12,1.0,1.0,1.0*30
$GPRMC,205303.638,A,5025.378,N,03035.552,E,033.0,179.5,100325,000.0,W*76
$GPGGA,205304.638,5025.369,N,03035.553,E,1,12,1.0,0.0,M,0.0,M,,*6B
$GPGSA,A,3,01,02,03,04,05,06,07,08,09,10,11,12,1.0,1.0,1.0*30
$GPRMC,205304.638,A,5025.369,N,03035.553,E,033.0,179.5,100325,000.0,W*70
$GPGGA,205305.638,5025.360,N,03035.553,E,1,12,1.0,0.0,M,0.0,M,,*63
$GPGSA,A,3,01,02,03,04,05,06,07,08,09,10,11,12,1.0,1.0,1.0*30
$GPRMC,205305.638,A,5025.360,N,03035.553,E,033.0,179.5,100325,000.0,W*78
$GPGGA,205306.638,5025.351,N,03035.553,E,1,12,1.0,0.0,M,0.0,M,,*62
$GPGSA,A,3,01,02,03,04,05,06,07,08,09,10,11,12,1.0,1.0,1.0*30
$GPRMC,205306.638,A,5025.351,N,03035.553,E,033.0,179.5,100325,000.0,W*79
$GPGGA,205307.638,5025.341,N,03035.553,E,1,12,1.0,0.0,M,0.0,M,,*62
$GPGSA,A,3,01,02,03,04,05,06,07,08,09,10,11,12,1.0,1.0,1.0*30
$GPRMC,205307.638,A,5025.341,N,03035.553,E,033.0,179.5,100325,000.0,W*79
$GPGGA,205308.638,5025.332,N,03035.553,E,1,12,1.0,0.0,M,0.0,M,,*69
$GPGSA,A,3,01,02,03,04,05,06,07,08,09,10,11,12,1.0,1.0,1.0*30
$GPRMC,205308.638,A,5025.332,N,03035.553,E,033.0,179.5,100325,000.0,W*72
$GPGGA,205309.638,5025.323,N,03035.553,E,1,12,1.0,0.0,M,0.0,M,,*68
$GPGSA,A,3,01,02,03,04,05,06,07,08,09,10,11,12,1.0,1.0,1.0*30
$GPRMC,205309.638,A,5025.323,N,03035.553,E,009.7,179.9,100325,000.0,W*71
$GPGGA,205310.638,5025.320,N,03035.553,E,1,12,1.0,0.0,M,0.0,M,,*63
$GPGSA,A,3,01,02,03,04,05,06,07,08,09,10,11,12,1.0,1.0,1.0*30
$GPRMC,205310.638,A,5025.320,N,03035.553,E,009.7,179.9,100325,000.0,W*7A
$GPGGA,205311.638,5025.318,N,03035.553,E,1,12,1.0,0.0,M,0.0,M,,*69
$GPGSA,A,3,01,02,03,04,05,06,07,08,09,10,11,12,1.0,1.0,1.0*30
$GPRMC,205311.638,A,5025.318,N,03035.553,E,009.7,179.9,100325,000.0,W*70
$GPGGA,205312.638,5025.315,N,03035.553,E,1,12,1.0,0.0,M,0.0,M,,*67
$GPGSA,A,3,01,02,03,04,05,06,07,08,09,10,11,12,1.0,1.0,1.0*30
$GPRMC,205312.638,A,5025.315,N,03035.553,E,033.0,180.2,100325,000.0,W*7D
$GPGGA,205313.638,5025.306,N,03035.553,E,1,12,1.0,0.0,M,0.0,M,,*64
$GPGSA,A,3,01,02,03,04,05,06,07,08,09,10,11,12,1.0,1.0,1.0*30
$GPRMC,205313.638,A,5025.306,N,03035.553,E,033.0,180.2,100325,000.0,W*7E
$GPGGA,205314.638,5025.297,N,03035.553,E,1,12,1.0,0.0,M,0.0,M,,*6A
$GPGSA,A,3,01,02,03,04,05,06,07,08,09,10,11,12,1.0,1.0,1.0*30
$GPRMC,205314.638,A,5025.297,N,03035.553,E,033.0,180.2,100325,000.0,W*70
$GPGGA,205315.638,5025.287,N,03035.553,E,1,12,1.0,0.0,M,0.0,M,,*6A
$GPGSA,A,3,01,02,03,04,05,06,07,08,09,10,11,12,1.0,1.0,1.0*30
$GPRMC,205315.638,A,5025.287,N,03035.553,E,033.0,180.2,100325,000.0,W*70
$GPGGA,205316.638,5025.278,N,03035.553,E,1,12,1.0,0.0,M,0.0,M,,*69
$GPGSA,A,3,01,02,03,04,05,06,07,08,09,10,11,12,1.0,1.0,1.0*30
$GPRMC,205316.638,A,5025.278,N,03035.553,E,033.0,180.2,100325,000.0,W*73
$GPGGA,205317.638,5025.269,N,03035.553,E,1,12,1.0,0.0,M,0.0,M,,*68
$GPGSA,A,3,01,02,03,04,05,06,07,08,09,10,11,12,1.0,1.0,1.0*30
$GPRMC,205317.638,A,5025.269,N,03035.553,E,033.0,180.2,100325,000.0,W*72
$GPGGA,205318.638,5025.260,N,03035.553,E,1,12,1.0,0.0,M,0.0,M,,*6E
$GPGSA,A,3,01,02,03,04,05,06,07,08,09,10,11,12,1.0,1.0,1.0*30
$GPRMC,205318.638,A,5025.260,N,03035.553,E,033.0,180.2,100325,000.0,W*74
$GPGGA,205319.638,5025.251,N,03035.553,E,1,12,1.0,0.0,M,0.0,M,,*6D
$GPGSA,A,3,01,02,03,04,05,06,07,08,09,10,11,12,1.0,1.0,1.0*30
$GPRMC,205319.638,A,5025.251,N,03035.553,E,033.0,180.2,100325,000.0,W*77
$GPGGA,205320.638,5025.242,N,03035.553,E,1,12,1.0,0.0,M,0.0,M,,*65
$GPGSA,A,3,01,02,03,04,05,06,07,08,09,10,11,12,1.0,1.0,1.0*30
$GPRMC,205320.638,A,5025.242,N,03035.553,E,033.0,180.2,100325,000.0,W*7F
$GPGGA,205321.638,5025.232,N,03035.553,E,1,12,1.0,0.0,M,0.0,M,,*63
$GPGSA,A,3,01,02,03,04,05,06,07,08,09,10,11,12,1.0,1.0,1.0*30
$GPRMC,205321.638,A,5025.232,N,03035.553,E,033.0,180.2,100325,000.0,W*79
$GPGGA,205322.638,5025.223,N,03035.553,E,1,12,1.0,0.0,M,0.0,M,,*60
$GPGSA,A,3,01,02,03,04,05,06,07,08,09,10,11,12,1.0,1.0,1.0*30
$GPRMC,205322.638,A,5025.223,N,03035.553,E,033.0,180.2,100325,000.0,W*7A
$GPGGA,205323.638,5025.214,N,03035.553,E,1,12,1.0,0.0,M,0.0,M,,*65
$GPGSA,A,3,01,02,03,04,05,06,07,08,09,10,11,12,1.0,1.0,1.0*30
$GPRMC,205323.638,A,5025.214,N,03035.553,E,033.0,177.9,100325,000.0,W*7C
$GPGGA,205324.638,5025.205,N,03035.553,E,1,12,1.0,0.0,M,0.0,M,,*62
$GPGSA,A,3,01,02,03,04,05,06,07,08,09,10,11,12,1.0,1.0,1.0*30
$GPRMC,205324.638,A,5025.205,N,03035.553,E,033.0,177.9,100325,000.0,W*7B
$GPGGA,205325.638,5025.196,N,03035.554,E,1,12,1.0,0.0,M,0.0,M,,*6D
$GPGSA,A,3,01,02,03,04,05,06,07,08,09,10,11,12,1.0,1.0,1.0*30
$GPRMC,205325.638,A,5025.196,N,03035.554,E,033.0,177.9,100325,000.0,W*74
$GPGGA,205326.638,5025.187,N,03035.554,E,1,12,1.0,0.0,M,0.0,M,,*6E
$GPGSA,A,3,01,02,03,04,05,06,07,08,09,10,11,12,1.0,1.0,1.0*30
$GPRMC,205326.638,A,5025.187,N,03035.554,E,033.0,175.4,100325,000.0,W*78
$GPGGA,205327.638,5025.177,N,03035.556,E,1,12,1.0,0.0,M,0.0,M,,*62
$GPGSA,A,3,01,02,03,04,05,06,07,08,09,10,11,12,1.0,1.0,1.0*30
$GPRMC,205327.638,A,5025.177,N,03035.556,E,033.0,175.4,100325,000.0,W*74
$GPGGA,205328.638,5025.168,N,03035.557,E,1,12,1.0,0.0,M,0.0,M,,*62
$GPGSA,A,3,01,02,03,04,05,06,07,08,09,10,11,12,1.0,1.0,1.0*30
$GPRMC,205328.638,A,5025.168,N,03035.557,E,033.0,175.4,100325,000.0,W*74
$GPGGA,205329.638,5025.159,N,03035.558,E,1,12,1.0,0.0,M,0.0,M,,*6E
$GPGSA,A,3,01,02,03,04,05,06,07,08,09,10,11,12,1.0,1.0,1.0*30
$GPRMC,205329.638,A,5025.159,N,03035.558,E,033.0,175.4,100325,000.0,W*78
$GPGGA,205330.638,5025.150,N,03035.559,E,1,12,1.0,0.0,M,0.0,M,,*6E
$GPGSA,A,3,01,02,03,04,05,06,07,08,09,10,11,12,1.0,1.0,1.0*30
$GPRMC,205330.638,A,5025.150,N,03035.559,E,033.0,169.1,100325,000.0,W*70
$GPGGA,205331.638,5025.141,N,03035.562,E,1,12,1.0,0.0,M,0.0,M,,*67
$GPGSA,A,3,01,02,03,04,05,06,07,08,09,10,11,12,1.0,1.0,1.0*30
$GPRMC,205331.638,A,5025.141,N,03035.562,E,033.0,169.1,100325,000.0,W*79
$GPGGA,205332.638,5025.132,N,03035.564,E,1,12,1.0,0.0,M,0.0,M,,*66
$GPGSA,A,3,01,02,03,04,05,06,07,08,09,10,11,12,1.0,1.0,1.0*30
$GPRMC,205332.638,A,5025.132,N,03035.564,E,033.0,169.1,100325,000.0,W*78
$GPGGA,205333.638,5025.123,N,03035.567,E,1,12,1.0,0.0,M,0.0,M,,*64
$GPGSA,A,3,01,02,03,04,05,06,07,08,09,10,11,12,1.0,1.0,1.0*30
$GPRMC,205333.638,A,5025.123,N,03035.567,E,033.0,169.1,100325,000.0,W*7A
$GPGGA,205334.638,5025.114,N,03035.570,E,1,12,1.0,0.0,M,0.0,M,,*61
$GPGSA,A,3,01,02,03,04,05,06,07,08,09,10,11,12,1.0,1.0,1.0*30
$GPRMC,205334.638,A,5025.114,N,03035.570,E,033.0,169.1,100325,000.0,W*7F
$GPGGA,205335.638,5025.105,N,03035.573,E,1,12,1.0,0.0,M,0.0,M,,*63
$GPGSA,A,3,01,02,03,04,05,06,07,08,09,10,11,12,1.0,1.0,1.0*30
$GPRMC,205335.638,A,5025.105,N,03035.573,E,033.0,163.9,100325,000.0,W*7F
$GPGGA,205336.638,5025.096,N,03035.577,E,1,12,1.0,0.0,M,0.0,M,,*6F
$GPGSA,A,3,01,02,03,04,05,06,07,08,09,10,11,12,1.0,1.0,1.0*30
$GPRMC,205336.638,A,5025.096,N,03035.577,E,033.0,163.9,100325,000.0,W*73
$GPGGA,205337.638,5025.087,N,03035.581,E,1,12,1.0,0.0,M,0.0,M,,*67
$GPGSA,A,3,01,02,03,04,05,06,07,08,09,10,11,12,1.0,1.0,1.0*30
$GPRMC,205337.638,A,5025.087,N,03035.581,E,033.0,163.9,100325,000.0,W*7B
$GPGGA,205338.638,5025.079,N,03035.585,E,1,12,1.0,0.0,M,0.0,M,,*6D
$GPGSA,A,3,01,02,03,04,05,06,07,08,09,10,11,12,1.0,1.0,1.0*30
$GPRMC,205338.638,A,5025.079,N,03035.585,E,033.0,160.1,100325,000.0,W*7A
$GPGGA,205339.638,5025.070,N,03035.589,E,1,12,1.0,0.0,M,0.0,M,,*69
$GPGSA,A,3,01,02,03,04,05,06,07,08,09,10,11,12,1.0,1.0,1.0*30
$GPRMC,205339.638,A,5025.070,N,03035.589,E,033.0,160.1,100325,000.0,W*7E
$GPGGA,205340.638,5025.061,N,03035.594,E,1,12,1.0,0.0,M,0.0,M,,*6B
$GPGSA,A,3,01,02,03,04,05,06,07,08,09,10,11,12,1.0,1.0,1.0*30
$GPRMC,205340.638,A,5025.061,N,03035.594,E,033.0,160.1,100325,000.0,W*7C
$GPGGA,205341.638,5025.053,N,03035.599,E,1,12,1.0,0.0,M,0.0,M,,*66
$GPGSA,A,3,01,02,03,04,05,06,07,08,09,10,11,12,1.0,1.0,1.0*30
$GPRMC,205341.638,A,5025.053,N,03035.599,E,033.0,160.1,100325,000.0,W*71
$GPGGA,205342.638,5025.044,N,03035.604,E,1,12,1.0,0.0,M,0.0,M,,*64
$GPGSA,A,3,01,02,03,04,05,06,07,08,09,10,11,12,1.0,1.0,1.0*30
$GPRMC,205342.638,A,5025.044,N,03035.604,E,033.0,160.1,100325,000.0,W*73
$GPGGA,205343.638,5025.035,N,03035.609,E,1,12,1.0,0.0,M,0.0,M,,*6E
$GPGSA,A,3,01,02,03,04,05,06,07,08,09,10,11,12,1.0,1.0,1.0*30
$GPRMC,205343.638,A,5025.035,N,03035.609,E,033.0,160.1,100325,000.0,W*79
$GPGGA,205344.638,5025.027,N,03035.614,E,1,12,1.0,0.0,M,0.0,M,,*66
$GPGSA,A,3,01,02,03,04,05,06,07,08,09,10,11,12,1.0,1.0,1.0*30
$GPRMC,205344.638,A,5025.027,N,03035.614,E,033.0,160.1,100325,000.0,W*71
$GPGGA,205345.638,5025.018,N,03035.619,E,1,12,1.0,0.0,M,0.0,M,,*66
$GPGSA,A,3,01,02,03,04,05,06,07,08,09,10,11,12,1.0,1.0,1.0*30
$GPRMC,205345.638,A,5025.018,N,03035.619,E,033.0,160.1,100325,000.0,W*71
$GPGGA,205346.638,5025.010,N,03035.624,E,1,12,1.0,0.0,M,0.0,M,,*63
$GPGSA,A,3,01,02,03,04,05,06,07,08,09,10,11,12,1.0,1.0,1.0*30
$GPRMC,205346.638,A,5025.010,N,03035.624,E,033.0,160.1,100325,000.0,W*74
$GPGGA,205347.638,5025.001,N,03035.629,E,1,12,1.0,0.0,M,0.0,M,,*6F
$GPGSA,A,3,01,02,03,04,05,06,07,08,09,10,11,12,1.0,1.0,1.0*30
$GPRMC,205347.638,A,5025.001,N,03035.629,E,033.0,160.1,100325,000.0,W*78
$GPGGA,205348.638,5024.992,N,03035.634,E,1,12,1.0,0.0,M,0.0,M,,*6E
$GPGSA,A,3,01,02,03,04,05,06,07,08,09,10,11,12,1.0,1.0,1.0*30
$GPRMC,205348.638,A,5024.992,N,03035.634,E,033.0,160.1,100325,000.0,W*79
$GPGGA,205349.638,5024.984,N,03035.638,E,1,12,1.0,0.0,M,0.0,M,,*64
$GPGSA,A,3,01,02,03,04,05,06,07,08,09,10,11,12,1.0,1.0,1.0*30
$GPRMC,205349.638,A,5024.984,N,03035.638,E,033.0,160.1,100325,000.0,W*73
$GPGGA,205350.638,5024.975,N,03035.643,E,1,12,1.0,0.0,M,0.0,M,,*6E
$GPGSA,A,3,01,02,03,04,05,06,07,08,09,10,11,12,1.0,1.0,1.0*30
$GPRMC,205350.638,A,5024.975,N,03035.643,E,033.0,160.1,100325,000.0,W*79
$GPGGA,205351.638,5024.966,N,03035.648,E,1,12,1.0,0.0,M,0.0,M,,*66
$GPGSA,A,3,01,02,03,04,05,06,07,08,09,10,11,12,1.0,1.0,1.0*30
$GPRMC,205351.638,A,5024.966,N,03035.648,E,033.0,160.1,100325,000.0,W*71
$GPGGA,205352.638,5024.958,N,03035.653,E,1,12,1.0,0.0,M,0.0,M,,*62
$GPGSA,A,3,01,02,03,04,05,06,07,08,09,10,11,12,1.0,1.0,1.0*30
$GPRMC,205352.638,A,5024.958,N,03035.653,E,033.0,160.1,100325,000.0,W*75
$GPGGA,205353.638,5024.949,N,03035.658,E,1,12,1.0,0.0,M,0.0,M,,*68
$GPGSA,A,3,01,02,03,04,05,06,07,08,09,10,11,12,1.0,1.0,1.0*30
$GPRMC,205353.638,A,5024.949,N,03035.658,E,033.0,160.1,100325,000.0,W*7F
$GPGGA,205354.638,5024.941,N,03035.663,E,1,12,1.0,0.0,M,0.0,M,,*6F
$GPGSA,A,3,01,02,03,04,05,06,07,08,09,10,11,12,1.0,1.0,1.0*30
$GPRMC,205354.638,A,5024.941,N,03035.663,E,033.0,160.1,100325,000.0,W*78
$GPGGA,205355.638,5024.932,N,03035.668,E,1,12,1.0,0.0,M,0.0,M,,*61
$GPGSA,A,3,01,02,03,04,05,06,07,08,09,10,11,12,1.0,1.0,1.0*30
$GPRMC,205355.638,A,5024.932,N,03035.668,E,033.0,159.5,100325,000.0,W*78
$GPGGA,205356.638,5024.923,N,03035.673,E,1,12,1.0,0.0,M,0.0,M,,*68
$GPGSA,A,3,01,02,03,04,05,06,07,08,09,10,11,12,1.0,1.0,1.0*30
$GPRMC,205356.638,A,5024.923,N,03035.673,E,033.0,159.5,100325,000.0,W*71
$GPGGA,205357.638,5024.915,N,03035.678,E,1,12,1.0,0.0,M,0.0,M,,*67
$GPGSA,A,3,01,02,03,04,05,06,07,08,09,10,11,12,1.0,1.0,1.0*30
$GPRMC,205357.638,A,5024.915,N,03035.678,E,033.0,159.5,100325,000.0,W*7E
$GPGGA,205358.638,5024.906,N,03035.683,E,1,12,1.0,0.0,M,0.0,M,,*6E
$GPGSA,A,3,01,02,03,04,05,06,07,08,09,10,11,12,1.0,1.0,1.0*30
$GPRMC,205358.638,A,5024.906,N,03035.683,E,033.0,159.5,100325,000.0,W*77
$GPGGA,205359.638,5024.898,N,03035.688,E,1,12,1.0,0.0,M,0.0,M,,*62
$GPGSA,A,3,01,02,03,04,05,06,07,08,09,10,11,12,1.0,1.0,1.0*30
$GPRMC,205359.638,A,5024.898,N,03035.688,E,033.0,159.5,100325,000.0,W*7B
$GPGGA,205400.638,5024.889,N,03035.693,E,1,12,1.0,0.0,M,0.0,M,,*63
$GPGSA,A,3,01,02,03,04,05,06,07,08,09,10,11,12,1.0,1.0,1.0*30
$GPRMC,205400.638,A,5024.889,N,03035.693,E,033.0,159.5,100325,000.0,W*7A
$GPGGA,205401.638,5024.880,N,03035.698,E,1,12,1.0,0.0,M,0.0,M,,*60
$GPGSA,A,3,01,02,03,04,05,06,07,08,09,10,11,12,1.0,1.0,1.0*30
$GPRMC,205401.638,A,5024.880,N,03035.698,E,033.0,159.5,100325,000.0,W*79
$GPGGA,205402.638,5024.872,N,03035.703,E,1,12,1.0,0.0,M,0.0,M,,*6D
$GPGSA,A,3,01,02,03,04,05,06,07,08,09,10,11,12,1.0,1.0,1.0*30
$GPRMC,205402.638,A,5024.872,N,03035.703,E,033.0,159.5,100325,000.0,W*74
$GPGGA,205403.638,5024.863,N,03035.708,E,1,12,1.0,0.0,M,0.0,M,,*67
$GPGSA,A,3,01,02,03,04,05,06,07,08,09,10,11,12,1.0,1.0,1.0*30
$GPRMC,205403.638,A,5024.863,N,03035.708,E,033.0,159.5,100325,000.0,W*7E
$GPGGA,205404.638,5024.855,N,03035.713,E,1,12,1.0,0.0,M,0.0,M,,*6F
$GPGSA,A,3,01,02,03,04,05,06,07,08,09,10,11,12,1.0,1.0,1.0*30
$GPRMC,205404.638,A,5024.855,N,03035.713,E,033.0,158.7,100325,000.0,W*75
$GPGGA,205405.638,5024.846,N,03035.719,E,1,12,1.0,0.0,M,0.0,M,,*66
$GPGSA,A,3,01,02,03,04,05,06,07,08,09,10,11,12,1.0,1.0,1.0*30
$GPRMC,205405.638,A,5024.846,N,03035.719,E,033.0,158.7,100325,000.0,W*7C
$GPGGA,205406.638,5024.838,N,03035.724,E,1,12,1.0,0.0,M,0.0,M,,*62
$GPGSA,A,3,01,02,03,04,05,06,07,08,09,10,11,12,1.0,1.0,1.0*30
$GPRMC,205406.638,A,5024.838,N,03035.724,E,033.0,158.7,100325,000.0,W*78
$GPGGA,205407.638,5024.829,N,03035.729,E,1,12,1.0,0.0,M,0.0,M,,*6E
$GPGSA,A,3,01,02,03,04,05,06,07,08,09,10,11,12,1.0,1.0,1.0*30
$GPRMC,205407.638,A,5024.829,N,03035.729,E,033.0,158.7,100325,000.0,W*74
$GPGGA,205408.638,5024.820,N,03035.734,E,1,12,1.0,0.0,M,0.0,M,,*64
$GPGSA,A,3,01,02,03,04,05,06,07,08,09,10,11,12,1.0,1.0,1.0*30
$GPRMC,205408.638,A,5024.820,N,03035.734,E,033.0,158.7,100325,000.0,W*7E
$GPGGA,205409.638,5024.812,N,03035.739,E,1,12,1.0,0.0,M,0.0,M,,*69
$GPGSA,A,3,01,02,03,04,05,06,07,08,09,10,11,12,1.0,1.0,1.0*30
$GPRMC,205409.638,A,5024.812,N,03035.739,E,033.0,158.7,100325,000.0,W*73
$GPGGA,205410.638,5024.803,N,03035.745,E,1,12,1.0,0.0,M,0.0,M,,*6A
$GPGSA,A,3,01,02,03,04,05,06,07,08,09,10,11,12,1.0,1.0,1.0*30
$GPRMC,205410.638,A,5024.803,N,03035.745,E,033.0,149.8,100325,000.0,W*7F
$GPGGA,205411.638,5024.795,N,03035.752,E,1,12,1.0,0.0,M,0.0,M,,*6D
$GPGSA,A,3,01,02,03,04,05,06,07,08,09,10,11,12,1.0,1.0,1.0*30
$GPRMC,205411.638,A,5024.795,N,03035.752,E,033.0,149.8,100325,000.0,W*78
$GPGGA,205412.638,5024.787,N,03035.759,E,1,12,1.0,0.0,M,0.0,M,,*66
$GPGSA,A,3,01,02,03,04,05,06,07,08,09,10,11,12,1.0,1.0,1.0*30
$GPRMC,205412.638,A,5024.787,N,03035.759,E,033.0,149.8,100325,000.0,W*73
$GPGGA,205413.638,5024.780,N,03035.766,E,1,12,1.0,0.0,M,0.0,M,,*6C
$GPGSA,A,3,01,02,03,04,05,06,07,08,09,10,11,12,1.0,1.0,1.0*30
$GPRMC,205413.638,A,5024.780,N,03035.766,E,033.0,149.8,100325,000.0,W*79
$GPGGA,205414.638,5024.772,N,03035.774,E,1,12,1.0,0.0,M,0.0,M,,*65
$GPGSA,A,3,01,02,03,04,05,06,07,08,09,10,11,12,1.0,1.0,1.0*30
$GPRMC,205414.638,A,5024.772,N,03035.774,E,033.0,149.8,100325,000.0,W*70
$GPGGA,205415.638,5024.764,N,03035.781,E,1,12,1.0,0.0,M,0.0,M,,*69
$GPGSA,A,3,01,02,03,04,05,06,07,08,09,10,11,12,1.0,1.0,1.0*30
$GPRMC,205415.638,A,5024.764,N,03035.781,E,033.0,142.9,100325,000.0,W*76
$GPGGA,205416.638,5024.756,N,03035.790,E,1,12,1.0,0.0,M,0.0,M,,*6B
$GPGSA,A,3,01,02,03,04,05,06,07,08,09,10,11,12,1.0,1.0,1.0*30
$GPRMC,205416.638,A,5024.756,N,03035.790,E,033.0,142.9,100325,000.0,W*74
$GPGGA,205417.638,5024.749,N,03035.798,E,1,12,1.0,0.0,M,0.0,M,,*6C
$GPGSA,A,3,01,02,03,04,05,06,07,08,09,10,11,12,1.0,1.0,1.0*30
$GPRMC,205417.638,A,5024.749,N,03035.798,E,033.0,142.9,100325,000.0,W*73
$GPGGA,205418.638,5024.742,N,03035.807,E,1,12,1.0,0.0,M,0.0,M,,*61
$GPGSA,A,3,01,02,03,04,05,06,07,08,09,10,11,12,1.0,1.0,1.0*30
$GPRMC,205418.638,A,5024.742,N,03035.807,E,033.0,137.0,100325,000.0,W*75
$GPGGA,205419.638,5024.735,N,03035.817,E,1,12,1.0,0.0,M,0.0,M,,*61
$GPGSA,A,3,01,02,03,04,05,06,07,08,09,10,11,12,1.0,1.0,1.0*30
$GPRMC,205419.638,A,5024.735,N,03035.817,E,033.0,137.0,100325,000.0,W*75
$GPGGA,205420.638,5024.728,N,03035.827,E,1,12,1.0,0.0,M,0.0,M,,*64
$GPGSA,A,3,01,02,03,04,05,06,07,08,09,10,11,12,1.0,1.0,1.0*30
$GPRMC,205420.638,A,5024.728,N,03035.827,E,033.0,137.0,100325,000.0,W*70
$GPGGA,205421.638,5024.722,N,03035.836,E,1,12,1.0,0.0,M,0.0,M,,*6F
$GPGSA,A,3,01,02,03,04,05,06,07,08,09,10,11,12,1.0,1.0,1.0*30
$GPRMC,205421.638,A,5024.722,N,03035.836,E,033.0,137.0,100325,000.0,W*7B
$GPGGA,205422.638,5024.715,N,03035.846,E,1,12,1.0,0.0,M,0.0,M,,*6F
$GPGSA,A,3,01,02,03,04,05,06,07,08,09,10,11,12,1.0,1.0,1.0*30
$GPRMC,205422.638,A,5024.715,N,03035.846,E,033.0,132.7,100325,000.0,W*79
$GPGGA,205423.638,5024.709,N,03035.857,E,1,12,1.0,0.0,M,0.0,M,,*63
$GPGSA,A,3,01,02,03,04,05,06,07,08,09,10,11,12,1.0,1.0,1.0*30
$GPRMC,205423.638,A,5024.709,N,03035.857,E,033.0,132.7,100325,000.0,W*75
$GPGGA,205424.638,5024.702,N,03035.867,E,1,12,1.0,0.0,M,0.0,M,,*6C
$GPGSA,A,3,01,02,03,04,05,06,07,08,09,10,11,12,1.0,1.0,1.0*30
$GPRMC,205424.638,A,5024.702,N,03035.867,E,033.0,132.7,100325,000.0,W*7A
$GPGGA,205425.638,5024.696,N,03035.878,E,1,12,1.0,0.0,M,0.0,M,,*6F
$GPGSA,A,3,01,02,03,04,05,06,07,08,09,10,11,12,1.0,1.0,1.0*30
$GPRMC,205425.638,A,5024.696,N,03035.878,E,033.0,132.7,100325,000.0,W*79
$GPGGA,205426.638,5024.690,N,03035.889,E,1,12,1.0,0.0,M,0.0,M,,*64
$GPGSA,A,3,01,02,03,04,05,06,07,08,09,10,11,12,1.0,1.0,1.0*30
$GPRMC,205426.638,A,5024.690,N,03035.889,E,033.0,132.7,100325,000.0,W*72
$GPGGA,205427.638,5024.684,N,03035.899,E,1,12,1.0,0.0,M,0.0,M,,*61
$GPGSA,A,3,01,02,03,04,05,06,07,08,09,10,11,12,1.0,1.0,1.0*30
$GPRMC,205427.638,A,5024.684,N,03035.899,E,033.0,132.7,100325,000.0,W*77
$GPGGA,205428.638,5024.678,N,03035.910,E,1,12,1.0,0.0,M,0.0,M,,*6D
$GPGSA,A,3,01,02,03,04,05,06,07,08,09,10,11,12,1.0,1.0,1.0*30
$GPRMC,205428.638,A,5024.678,N,03035.910,E,033.0,132.7,100325,000.0,W*7B
$GPGGA,205429.638,5024.671,N,03035.920,E,1,12,1.0,0.0,M,0.0,M,,*66
$GPGSA,A,3,01,02,03,04,05,06,07,08,09,10,11,12,1.0,1.0,1.0*30
$GPRMC,205429.638,A,5024.671,N,03035.920,E,033.0,132.7,100325,000.0,W*70
$GPGGA,205430.638,5024.665,N,03035.931,E,1,12,1.0,0.0,M,0.0,M,,*6B
$GPGSA,A,3,01,02,03,04,05,06,07,08,09,10,11,12,1.0,1.0,1.0*30
$GPRMC,205430.638,A,5024.665,N,03035.931,E,033.0,133.0,100325,000.0,W*7B
$GPGGA,205431.638,5024.659,N,03035.941,E,1,12,1.0,0.0,M,0.0,M,,*62
$GPGSA,A,3,01,02,03,04,05,06,07,08,09,10,11,12,1.0,1.0,1.0*30
$GPRMC,205431.638,A,5024.659,N,03035.941,E,033.0,133.0,100325,000.0,W*72
$GPGGA,205432.638,5024.653,N,03035.952,E,1,12,1.0,0.0,M,0.0,M,,*69
$GPGSA,A,3,01,02,03,04,05,06,07,08,09,10,11,12,1.0,1.0,1.0*30
$GPRMC,205432.638,A,5024.653,N,03035.952,E,033.0,133.0,100325,000.0,W*79
$GPGGA,205433.638,5024.646,N,03035.962,E,1,12,1.0,0.0,M,0.0,M,,*6F
$GPGSA,A,3,01,02,03,04,05,06,07,08,09,10,11,12,1.0,1.0,1.0*30
$GPRMC,205433.638,A,5024.646,N,03035.962,E,033.0,133.0,100325,000.0,W*7F
$GPGGA,205434.638,5024.640,N,03035.973,E,1,12,1.0,0.0,M,0.0,M,,*6E
$GPGSA,A,3,01,02,03,04,05,06,07,08,09,10,11,12,1.0,1.0,1.0*30
$GPRMC,205434.638,A,5024.640,N,03035.973,E,033.0,133.0,100325,000.0,W*7E
$GPGGA,205435.638,5024.634,N,03035.983,E,1,12,1.0,0.0,M,0.0,M,,*63
$GPGSA,A,3,01,02,03,04,05,06,07,08,09,10,11,12,1.0,1.0,1.0*30
$GPRMC,205435.638,A,5024.634,N,03035.983,E,033.0,133.0,100325,000.0,W*73
$GPGGA,205436.638,5024.628,N,03035.994,E,1,12,1.0,0.0,M,0.0,M,,*6B
$GPGSA,A,3,01,02,03,04,05,06,07,08,09,10,11,12,1.0,1.0,1.0*30
$GPRMC,205436.638,A,5024.628,N,03035.994,E,033.0,133.0,100325,000.0,W*7B
$GPGGA,205437.638,5024.621,N,03036.004,E,1,12,1.0,0.0,M,0.0,M,,*60
$GPGSA,A,3,01,02,03,04,05,06,07,08,09,10,11,12,1.0,1.0,1.0*30
$GPRMC,205437.638,A,5024.621,N,03036.004,E,033.0,133.0,100325,000.0,W*70
$GPGGA,205438.638,5024.615,N,03036.015,E,1,12,1.0,0.0,M,0.0,M,,*68
$GPGSA,A,3,01,02,03,04,05,06,07,08,09,10,11,12,1.0,1.0,1.0*30
$GPRMC,205438.638,A,5024.615,N,03036.015,E,033.0,132.5,100325,000.0,W*7C
$GPGGA,205439.638,5024.609,N,03036.026,E,1,12,1.0,0.0,M,0.0,M,,*64
$GPGSA,A,3,01,02,03,04,05,06,07,08,09,10,11,12,1.0,1.0,1.0*30
$GPRMC,205439.638,A,5024.609,N,03036.026,E,033.0,132.5,100325,000.0,W*70
$GPGGA,205440.638,5024.603,N,03036.036,E,1,12,1.0,0.0,M,0.0,M,,*61
$GPGSA,A,3,01,02,03,04,05,06,07,08,09,10,11,12,1.0,1.0,1.0*30
$GPRMC,205440.638,A,5024.603,N,03036.036,E,033.0,132.5,100325,000.0,W*75
$GPGGA,205441.638,5024.596,N,03036.047,E,1,12,1.0,0.0,M,0.0,M,,*69
$GPGSA,A,3,01,02,03,04,05,06,07,08,09,10,11,12,1.0,1.0,1.0*30
$GPRMC,205441.638,A,5024.596,N,03036.047,E,033.0,132.5,100325,000.0,W*7D
$GPGGA,205442.638,5024.590,N,03036.057,E,1,12,1.0,0.0,M,0.0,M,,*6D
$GPGSA,A,3,01,02,03,04,05,06,07,08,09,10,11,12,1.0,1.0,1.0*30
$GPRMC,205442.638,A,5024.590,N,03036.057,E,033.0,132.5,100325,000.0,W*79
$GPGGA,205443.638,5024.584,N,03036.068,E,1,12,1.0,0.0,M,0.0,M,,*65
$GPGSA,A,3,01,02,03,04,05,06,07,08,09,10,11,12,1.0,1.0,1.0*30
$GPRMC,205443.638,A,5024.584,N,03036.068,E,033.0,129.4,100325,000.0,W*7A
$GPGGA,205444.638,5024.578,N,03036.079,E,1,12,1.0,0.0,M,0.0,M,,*61
$GPGSA,A,3,01,02,03,04,05,06,07,08,09,10,11,12,1.0,1.0,1.0*30
$GPRMC,205444.638,A,5024.578,N,03036.079,E,033.0,129.4,100325,000.0,W*7E
$GPGGA,205445.638,5024.572,N,03036.090,E,1,12,1.0,0.0,M,0.0,M,,*6D
$GPGSA,A,3,01,02,03,04,05,06,07,08,09,10,11,12,1.0,1.0,1.0*30
$GPRMC,205445.638,A,5024.572,N,03036.090,E,033.0,129.4,100325,000.0,W*72
$GPGGA,205446.638,5024.567,N,03036.101,E,1,12,1.0,0.0,M,0.0,M,,*63
$GPGSA,A,3,01,02,03,04,05,06,07,08,09,10,11,12,1.0,1.0,1.0*30
$GPRMC,205446.638,A,5024.567,N,03036.101,E,033.0,125.4,100325,000.0,W*70
$GPGGA,205447.638,5024.561,N,03036.113,E,1,12,1.0,0.0,M,0.0,M,,*67
$GPGSA,A,3,01,02,03,04,05,06,07,08,09,10,11,12,1.0,1.0,1.0*30
$GPRMC,205447.638,A,5024.561,N,03036.113,E,033.0,125.4,100325,000.0,W*74
$GPGGA,205448.638,5024.556,N,03036.125,E,1,12,1.0,0.0,M,0.0,M,,*69
$GPGSA,A,3,01,02,03,04,05,06,07,08,09,10,11,12,1.0,1.0,1.0*30
$GPRMC,205448.638,A,5024.556,N,03036.125,E,033.0,125.4,100325,000.0,W*7A
$GPGGA,205449.638,5024.551,N,03036.137,E,1,12,1.0,0.0,M,0.0,M,,*6C
$GPGSA,A,3,01,02,03,04,05,06,07,08,09,10,11,12,1.0,1.0,1.0*30
$GPRMC,205449.638,A,5024.551,N,03036.137,E,033.0,125.4,100325,000.0,W*7F
$GPGGA,205450.638,5024.545,N,03036.148,E,1,12,1.0,0.0,M,0.0,M,,*69
$GPGSA,A,3,01,02,03,04,05,06,07,08,09,10,11,12,1.0,1.0,1.0*30
$GPRMC,205450.638,A,5024.545,N,03036.148,E,033.0,117.5,100325,000.0,W*7A
$GPGGA,205451.638,5024.541,N,03036.161,E,1,12,1.0,0.0,M,0.0,M,,*67
$GPGSA,A,3,01,02,03,04,05,06,07,08,09,10,11,12,1.0,1.0,1.0*30
$GPRMC,205451.638,A,5024.541,N,03036.161,E,033.0,117.5,100325,000.0,W*74
$GPGGA,205452.638,5024.537,N,03036.174,E,1,12,1.0,0.0,M,0.0,M,,*61
$GPGSA,A,3,01,02,03,04,05,06,07,08,09,10,11,12,1.0,1.0,1.0*30
$GPRMC,205452.638,A,5024.537,N,03036.174,E,033.0,117.5,100325,000.0,W*72
$GPGGA,205453.638,5024.533,N,03036.187,E,1,12,1.0,0.0,M,0.0,M,,*68
$GPGSA,A,3,01,02,03,04,05,06,07,08,09,10,11,12,1.0,1.0,1.0*30
$GPRMC,205453.638,A,5024.533,N,03036.187,E,033.0,117.5,100325,000.0,W*7B
$GPGGA,205454.638,5024.528,N,03036.199,E,1,12,1.0,0.0,M,0.0,M,,*6A
$GPGSA,A,3,01,02,03,04,05,06,07,08,09,10,11,12,1.0,1.0,1.0*30
$GPRMC,205454.638,A,5024.528,N,03036.199,E,033.0,117.5,100325,000.0,W*79
$GPGGA,205455.638,5024.524,N,03036.212,E,1,12,1.0,0.0,M,0.0,M,,*67
$GPGSA,A,3,01,02,03,04,05,06,07,08,09,10,11,12,1.0,1.0,1.0*30
$GPRMC,205455.638,A,5024.524,N,03036.212,E,033.0,117.5,100325,000.0,W*74
$GPGGA,205456.638,5024.520,N,03036.225,E,1,12,1.0,0.0,M,0.0,M,,*64
$GPGSA,A,3,01,02,03,04,05,06,07,08,09,10,11,12,1.0,1.0,1.0*30
$GPRMC,205456.638,A,5024.520,N,03036.225,E,033.0,117.5,100325,000.0,W*77
$GPGGA,205457.638,5024.516,N,03036.238,E,1,12,1.0,0.0,M,0.0,M,,*6C
$GPGSA,A,3,01,02,03,04,05,06,07,08,09,10,11,12,1.0,1.0,1.0*30
$GPRMC,205457.638,A,5024.516,N,03036.238,E,033.0,117.5,100325,000.0,W*7F
$GPGGA,205458.638,5024.511,N,03036.250,E,1,12,1.0,0.0,M,0.0,M,,*6A
$GPGSA,A,3,01,02,03,04,05,06,07,08,09,10,11,12,1.0,1.0,1.0*30
$GPRMC,205458.638,A,5024.511,N,03036.250,E,033.0,117.5,100325,000.0,W*79
$GPGGA,205459.638,5024.507,N,03036.263,E,1,12,1.0,0.0,M,0.0,M,,*6C
$GPGSA,A,3,01,02,03,04,05,06,07,08,09,10,11,12,1.0,1.0,1.0*30
$GPRMC,205459.638,A,5024.507,N,03036.263,E,033.0,117.5,100325,000.0,W*7F
$GPGGA,205500.638,5024.503,N,03036.276,E,1,12,1.0,0.0,M,0.0,M,,*61
$GPGSA,A,3,01,02,03,04,05,06,07,08,09,10,11,12,1.0,1.0,1.0*30
$GPRMC,205500.638,A,5024.503,N,03036.276,E,033.0,117.5,100325,000.0,W*72
$GPGGA,205501.638,5024.499,N,03036.289,E,1,12,1.0,0.0,M,0.0,M,,*62
$GPGSA,A,3,01,02,03,04,05,06,07,08,09,10,11,12,1.0,1.0,1.0*30
$GPRMC,205501.638,A,5024.499,N,03036.289,E,033.0,117.5,100325,000.0,W*71
$GPGGA,205502.638,5024.494,N,03036.302,E,1,12,1.0,0.0,M,0.0,M,,*6E
$GPGSA,A,3,01,02,03,04,05,06,07,08,09,10,11,12,1.0,1.0,1.0*30
$GPRMC,205502.638,A,5024.494,N,03036.302,E,033.0,117.5,100325,000.0,W*7D
$GPGGA,205503.638,5024.490,N,03036.314,E,1,12,1.0,0.0,M,0.0,M,,*6C
$GPGSA,A,3,01,02,03,04,05,06,07,08,09,10,11,12,1.0,1.0,1.0*30
$GPRMC,205503.638,A,5024.490,N,03036.314,E,033.0,117.5,100325,000.0,W*7F
$GPGGA,205504.638,5024.486,N,03036.327,E,1,12,1.0,0.0,M,0.0,M,,*6C
$GPGSA,A,3,01,02,03,04,05,06,07,08,09,10,11,12,1.0,1.0,1.0*30
$GPRMC,205504.638,A,5024.486,N,03036.327,E,033.0,117.5,100325,000.0,W*7F
$GPGGA,205505.638,5024.482,N,03036.340,E,1,12,1.0,0.0,M,0.0,M,,*68
$GPGSA,A,3,01,02,03,04,05,06,07,08,09,10,11,12,1.0,1.0,1.0*30
$GPRMC,205505.638,A,5024.482,N,03036.340,E,033.0,117.5,100325,000.0,W*7B
$GPGGA,205506.638,5024.477,N,03036.353,E,1,12,1.0,0.0,M,0.0,M,,*63
$GPGSA,A,3,01,02,03,04,05,06,07,08,09,10,11,12,1.0,1.0,1.0*30
$GPRMC,205506.638,A,5024.477,N,03036.353,E,033.0,117.5,100325,000.0,W*70
$GPGGA,205507.638,5024.473,N,03036.365,E,1,12,1.0,0.0,M,0.0,M,,*63
$GPGSA,A,3,01,02,03,04,05,06,07,08,09,10,11,12,1.0,1.0,1.0*30
$GPRMC,205507.638,A,5024.473,N,03036.365,E,033.0,114.7,100325,000.0,W*71
$GPGGA,205508.638,5024.469,N,03036.378,E,1,12,1.0,0.0,M,0.0,M,,*6B
$GPGSA,A,3,01,02,03,04,05,06,07,08,09,10,11,12,1.0,1.0,1.0*30
$GPRMC,205508.638,A,5024.469,N,03036.378,E,033.0,114.7,100325,000.0,W*79
$GPGGA,205509.638,5024.466,N,03036.392,E,1,12,1.0,0.0,M,0.0,M,,*61
$GPGSA,A,3,01,02,03,04,05,06,07,08,09,10,11,12,1.0,1.0,1.0*30
$GPRMC,205509.638,A,5024.466,N,03036.392,E,033.0,114.7,100325,000.0,W*73
$GPGGA,205510.638,5024.462,N,03036.405,E,1,12,1.0,0.0,M,0.0,M,,*64
$GPGSA,A,3,01,02,03,04,05,06,07,08,09,10,11,12,1.0,1.0,1.0*30
$GPRMC,205510.638,A,5024.462,N,03036.405,E,033.0,114.7,100325,000.0,W*76
$GPGGA,205511.638,5024.458,N,03036.418,E,1,12,1.0,0.0,M,0.0,M,,*60
$GPGSA,A,3,01,02,03,04,05,06,07,08,09,10,11,12,1.0,1.0,1.0*30
$GPRMC,205511.638,A,5024.458,N,03036.418,E,033.0,114.7,100325,000.0,W*72
$GPGGA,205512.638,5024.454,N,03036.431,E,1,12,1.0,0.0,M,0.0,M,,*64
$GPGSA,A,3,01,02,03,04,05,06,07,08,09,10,11,12,1.0,1.0,1.0*30
$GPRMC,205512.638,A,5024.454,N,03036.431,E,033.0,114.7,100325,000.0,W*76
$GPGGA,205513.638,5024.450,N,03036.444,E,1,12,1.0,0.0,M,0.0,M,,*63
$GPGSA,A,3,01,02,03,04,05,06,07,08,09,10,11,12,1.0,1.0,1.0*30
$GPRMC,205513.638,A,5024.450,N,03036.444,E,033.0,114.7,100325,000.0,W*71
$GPGGA,205514.638,5024.446,N,03036.457,E,1,12,1.0,0.0,M,0.0,M,,*61
$GPGSA,A,3,01,02,03,04,05,06,07,08,09,10,11,12,1.0,1.0,1.0*30
$GPRMC,205514.638,A,5024.446,N,03036.457,E,033.0,114.7,100325,000.0,W*73
$GPGGA,205515.638,5024.443,N,03036.470,E,1,12,1.0,0.0,M,0.0,M,,*60
$GPGSA,A,3,01,02,03,04,05,06,07,08,09,10,11,12,1.0,1.0,1.0*30
$GPRMC,205515.638,A,5024.443,N,03036.470,E,033.0,114.7,100325,000.0,W*72
$GPGGA,205516.638,5024.439,N,03036.483,E,1,12,1.0,0.0,M,0.0,M,,*62
$GPGSA,A,3,01,02,03,04,05,06,07,08,09,10,11,12,1.0,1.0,1.0*30
$GPRMC,205516.638,A,5024.439,N,03036.483,E,033.0,114.7,100325,000.0,W*70
$GPGGA,205517.638,5024.435,N,03036.496,E,1,12,1.0,0.0,M,0.0,M,,*6B
$GPGSA,A,3,01,02,03,04,05,06,07,08,09,10,11,12,1.0,1.0,1.0*30
$GPRMC,205517.638,A,5024.435,N,03036.496,E,033.0,114.7,100325,000.0,W*79
$GPGGA,205518.638,5024.431,N,03036.509,E,1,12,1.0,0.0,M,0.0,M,,*67
$GPGSA,A,3,01,02,03,04,05,06,07,08,09,10,11,12,1.0,1.0,1.0*30
$GPRMC,205518.638,A,5024.431,N,03036.509,E,033.0,114.7,100325,000.0,W*75
$GPGGA,205519.638,5024.427,N,03036.522,E,1,12,1.0,0.0,M,0.0,M,,*68
$GPGSA,A,3,01,02,03,04,05,06,07,08,09,10,11,12,1.0,1.0,1.0*30
$GPRMC,205519.638,A,5024.427,N,03036.522,E,033.0,114.7,100325,000.0,W*7A
$GPGGA,205520.638,5024.423,N,03036.535,E,1,12,1.0,0.0,M,0.0,M,,*60
$GPGSA,A,3,01,02,03,04,05,06,07,08,09,10,11,12,1.0,1.0,1.0*30
$GPRMC,205520.638,A,5024.423,N,03036.535,E,033.0,114.7,100325,000.0,W*72
$GPGGA,205521.638,5024.420,N,03036.548,E,1,12,1.0,0.0,M,0.0,M,,*68
$GPGSA,A,3,01,02,03,04,05,06,07,08,09,10,11,12,1.0,1.0,1.0*30
$GPRMC,205521.638,A,5024.420,N,03036.548,E,033.0,114.7,100325,000.0,W*7A
$GPGGA,205522.638,5024.416,N,03036.562,E,1,12,1.0,0.0,M,0.0,M,,*66
$GPGSA,A,3,01,02,03,04,05,06,07,08,09,10,11,12,1.0,1.0,1.0*30
$GPRMC,205522.638,A,5024.416,N,03036.562,E,033.0,114.7,100325,000.0,W*74
$GPGGA,205523.638,5024.412,N,03036.575,E,1,12,1.0,0.0,M,0.0,M,,*65
$GPGSA,A,3,01,02,03,04,05,06,07,08,09,10,11,12,1.0,1.0,1.0*30
$GPRMC,205523.638,A,5024.412,N,03036.575,E,033.0,114.7,100325,000.0,W*77
$GPGGA,205524.638,5024.408,N,03036.588,E,1,12,1.0,0.0,M,0.0,M,,*6B
$GPGSA,A,3,01,02,03,04,05,06,07,08,09,10,11,12,1.0,1.0,1.0*30
$GPRMC,205524.638,A,5024.408,N,03036.588,E,033.0,114.7,100325,000.0,W*79
$GPGGA,205525.638,5024.404,N,03036.601,E,1,12,1.0,0.0,M,0.0,M,,*64
$GPGSA,A,3,01,02,03,04,05,06,07,08,09,10,11,12,1.0,1.0,1.0*30
$GPRMC,205525.638,A,5024.404,N,03036.601,E,033.0,114.7,100325,000.0,W*76
$GPGGA,205526.638,5024.400,N,03036.614,E,1,12,1.0,0.0,M,0.0,M,,*67
$GPGSA,A,3,01,02,03,04,05,06,07,08,09,10,11,12,1.0,1.0,1.0*30
$GPRMC,205526.638,A,5024.400,N,03036.614,E,033.0,114.7,100325,000.0,W*75
$GPGGA,205527.638,5024.397,N,03036.627,E,1,12,1.0,0.0,M,0.0,M,,*6F
$GPGSA,A,3,01,02,03,04,05,06,07,08,09,10,11,12,1.0,1.0,1.0*30
$GPRMC,205527.638,A,5024.397,N,03036.627,E,033.0,114.7,100325,000.0,W*7D
$GPGGA,205528.638,5024.393,N,03036.640,E,1,12,1.0,0.0,M,0.0,M,,*65
$GPGSA,A,3,01,02,03,04,05,06,07,08,09,10,11,12,1.0,1.0,1.0*30
$GPRMC,205528.638,A,5024.393,N,03036.640,E,009.7,115.5,100325,000.0,W*7A
$GPGGA,205529.638,5024.392,N,03036.644,E,1,12,1.0,0.0,M,0.0,M,,*61
$GPGSA,A,3,01,02,03,04,05,06,07,08,09,10,11,12,1.0,1.0,1.0*30
$GPRMC,205529.638,A,5024.392,N,03036.644,E,009.7,115.5,100325,000.0,W*7E
$GPGGA,205530.638,5024.390,N,03036.648,E,1,12,1.0,0.0,M,0.0,M,,*67
$GPGSA,A,3,01,02,03,04,05,06,07,08,09,10,11,12,1.0,1.0,1.0*30
$GPRMC,205530.638,A,5024.390,N,03036.648,E,009.7,115.5,100325,000.0,W*78
$GPGGA,205531.638,5024.389,N,03036.651,E,1,12,1.0,0.0,M,0.0,M,,*66
$GPGSA,A,3,01,02,03,04,05,06,07,08,09,10,11,12,1.0,1.0,1.0*30
$GPRMC,205531.638,A,5024.389,N,03036.651,E,009.7,115.5,100325,000.0,W*79
$GPGGA,205532.638,5024.388,N,03036.655,E,1,12,1.0,0.0,M,0.0,M,,*60
$GPGSA,A,3,01,02,03,04,05,06,07,08,09,10,11,12,1.0,1.0,1.0*30
$GPRMC,205532.638,A,5024.388,N,03036.655,E,009.7,115.5,100325,000.0,W*7F
$GPGGA,205533.638,5024.387,N,03036.659,E,1,12,1.0,0.0,M,0.0,M,,*62
$GPGSA,A,3,01,02,03,04,05,06,07,08,09,10,11,12,1.0,1.0,1.0*30
$GPRMC,205533.638,A,5024.387,N,03036.659,E,009.7,115.5,100325,000.0,W*7D
$GPGGA,205534.638,5024.386,N,03036.663,E,1,12,1.0,0.0,M,0.0,M,,*6D
$GPGSA,A,3,01,02,03,04,05,06,07,08,09,10,11,12,1.0,1.0,1.0*30
$GPRMC,205534.638,A,5024.386,N,03036.663,E,009.7,115.5,100325,000.0,W*72
$GPGGA,205535.638,5024.385,N,03036.667,E,1,12,1.0,0.0,M,0.0,M,,*6B
$GPGSA,A,3,01,02,03,04,05,06,07,08,09,10,11,12,1.0,1.0,1.0*30
$GPRMC,205535.638,A,5024.385,N,03036.667,E,009.7,115.5,100325,000.0,W*74
$GPGGA,205536.638,5024.383,N,03036.671,E,1,12,1.0,0.0,M,0.0,M,,*69
$GPGSA,A,3,01,02,03,04,05,06,07,08,09,10,11,12,1.0,1.0,1.0*30
$GPRMC,205536.638,A,5024.383,N,03036.671,E,009.7,115.5,100325,000.0,W*76
$GPGGA,205537.638,5024.382,N,03036.674,E,1,12,1.0,0.0,M,0.0,M,,*6C
$GPGSA,A,3,01,02,03,04,05,06,07,08,09,10,11,12,1.0,1.0,1.0*30
$GPRMC,205537.638,A,5024.382,N,03036.674,E,009.7,115.5,100325,000.0,W*73
$GPGGA,205538.638,5024.381,N,03036.678,E,1,12,1.0,0.0,M,0.0,M,,*6C
$GPGSA,A,3,01,02,03,04,05,06,07,08,09,10,11,12,1.0,1.0,1.0*30
$GPRMC,205538.638,A,5024.381,N,03036.678,E,009.7,119.4,100325,000.0,W*7E
$GPGGA,205539.638,5024.380,N,03036.682,E,1,12,1.0,0.0,M,0.0,M,,*69
$GPGSA,A,3,01,02,03,04,05,06,07,08,09,10,11,12,1.0,1.0,1.0*30
$GPRMC,205539.638,A,5024.380,N,03036.682,E,009.7,119.4,100325,000.0,W*7B
$GPGGA,205540.638,5024.379,N,03036.686,E,1,12,1.0,0.0,M,0.0,M,,*65
$GPGSA,A,3,01,02,03,04,05,06,07,08,09,10,11,12,1.0,1.0,1.0*30
$GPRMC,205540.638,A,5024.379,N,03036.686,E,009.7,119.4,100325,000.0,W*77
$GPGGA,205541.638,5024.377,N,03036.689,E,1,12,1.0,0.0,M,0.0,M,,*65
$GPGSA,A,3,01,02,03,04,05,06,07,08,09,10,11,12,1.0,1.0,1.0*30
$GPRMC,205541.638,A,5024.377,N,03036.689,E,009.7,125.3,100325,000.0,W*7F
$GPGGA,205542.638,5024.376,N,03036.693,E,1,12,1.0,0.0,M,0.0,M,,*6C
$GPGSA,A,3,01,02,03,04,05,06,07,08,09,10,11,12,1.0,1.0,1.0*30
$GPRMC,205542.638,A,5024.376,N,03036.693,E,009.7,141.3,100325,000.0,W*74
$GPGGA,205543.638,5024.374,N,03036.695,E,1,12,1.0,0.0,M,0.0,M,,*69
$GPGSA,A,3,01,02,03,04,05,06,07,08,09,10,11,12,1.0,1.0,1.0*30
$GPRMC,205543.638,A,5024.374,N,03036.695,E,009.7,141.3,100325,000.0,W*71
$GPGGA,205544.638,5024.371,N,03036.698,E,1,12,1.0,0.0,M,0.0,M,,*66
$GPGSA,A,3,01,02,03,04,05,06,07,08,09,10,11,12,1.0,1.0,1.0*30
$GPRMC,205544.638,A,5024.371,N,03036.698,E,009.7,141.3,100325,000.0,W*7E
$GPGGA,205545.638,5024.369,N,03036.701,E,1,12,1.0,0.0,M,0.0,M,,*6F
$GPGSA,A,3,01,02,03,04,05,06,07,08,09,10,11,12,1.0,1.0,1.0*30
$GPRMC,205545.638,A,5024.369,N,03036.701,E,009.7,128.1,100325,000.0,W*7A
$GPGGA,205546.638,5024.368,N,03036.704,E,1,12,1.0,0.0,M,0.0,M,,*68
$GPGSA,A,3,01,02,03,04,05,06,07,08,09,10,11,12,1.0,1.0,1.0*30
$GPRMC,205546.638,A,5024.368,N,03036.704,E,009.7,128.1,100325,000.0,W*7D
$GPGGA,205547.638,5024.366,N,03036.707,E,1,12,1.0,0.0,M,0.0,M,,*64
$GPGSA,A,3,01,02,03,04,05,06,07,08,09,10,11,12,1.0,1.0,1.0*30
$GPRMC,205547.638,A,5024.366,N,03036.707,E,009.7,128.1,100325,000.0,W*71
$GPGGA,205548.638,5024.364,N,03036.711,E,1,12,1.0,0.0,M,0.0,M,,*6E
$GPGSA,A,3,01,02,03,04,05,06,07,08,09,10,11,12,1.0,1.0,1.0*30
$GPRMC,205548.638,A,5024.364,N,03036.711,E,009.7,128.1,100325,000.0,W*7B
$GPGGA,205549.638,5024.363,N,03036.714,E,1,12,1.0,0.0,M,0.0,M,,*6D
$GPGSA,A,3,01,02,03,04,05,06,07,08,09,10,11,12,1.0,1.0,1.0*30
$GPRMC,205549.638,A,5024.363,N,03036.714,E,009.7,128.1,100325,000.0,W*78
$GPGGA,205550.638,5024.361,N,03036.717,E,1,12,1.0,0.0,M,0.0,M,,*64
$GPGSA,A,3,01,02,03,04,05,06,07,08,09,10,11,12,1.0,1.0,1.0*30
$GPRMC,205550.638,A,5024.361,N,03036.717,E,009.7,128.1,100325,000.0,W*71
$GPGGA,205551.638,5024.359,N,03036.721,E,1,12,1.0,0.0,M,0.0,M,,*6B
$GPGSA,A,3,01,02,03,04,05,06,07,08,09,10,11,12,1.0,1.0,1.0*30
$GPRMC,205551.638,A,5024.359,N,03036.721,E,009.7,128.1,100325,000.0,W*7E
$GPGGA,205552.638,5024.358,N,03036.724,E,1,12,1.0,0.0,M,0.0,M,,*6C
$GPGSA,A,3,01,02,03,04,05,06,07,08,09,10,11,12,1.0,1.0,1.0*30
$GPRMC,205552.638,A,5024.358,N,03036.724,E,009.7,128.1,100325,000.0,W*79
$GPGGA,205553.638,5024.356,N,03036.727,E,1,12,1.0,0.0,M,0.0,M,,*60
$GPGSA,A,3,01,02,03,04,05,06,07,08,09,10,11,12,1.0,1.0,1.0*30
$GPRMC,205553.638,A,5024.356,N,03036.727,E,009.7,128.1,100325,000.0,W*75
$GPGGA,205554.638,5024.354,N,03036.731,E,1,12,1.0,0.0,M,0.0,M,,*62
$GPGSA,A,3,01,02,03,04,05,06,07,08,09,10,11,12,1.0,1.0,1.0*30
$GPRMC,205554.638,A,5024.354,N,03036.731,E,009.7,128.1,100325,000.0,W*77
$GPGGA,205555.638,5024.353,N,03036.734,E,1,12,1.0,0.0,M,0.0,M,,*61
$GPGSA,A,3,01,02,03,04,05,06,07,08,09,10,11,12,1.0,1.0,1.0*30
$GPRMC,205555.638,A,5024.353,N,03036.734,E,009.7,128.1,100325,000.0,W*74
$GPGGA,205556.638,5024.351,N,03036.737,E,1,12,1.0,0.0,M,0.0,M,,*63
$GPGSA,A,3,01,02,03,04,05,06,07,08,09,10,11,12,1.0,1.0,1.0*30
$GPRMC,205556.638,A,5024.351,N,03036.737,E,009.7,128.1,100325,000.0,W*76
$GPGGA,205557.638,5024.349,N,03036.741,E,1,12,1.0,0.0,M,0.0,M,,*6A
$GPGSA,A,3,01,02,03,04,05,06,07,08,09,10,11,12,1.0,1.0,1.0*30
$GPRMC,205557.638,A,5024.349,N,03036.741,E,009.7,128.1,100325,000.0,W*7F
$GPGGA,205558.638,5024.348,N,03036.744,E,1,12,1.0,0.0,M,0.0,M,,*61
$GPGSA,A,3,01,02,03,04,05,06,07,08,09,10,11,12,1.0,1.0,1.0*30
$GPRMC,205558.638,A,5024.348,N,03036.744,E,009.7,128.1,100325,000.0,W*74
$GPGGA,205559.638,5024.346,N,03036.747,E,1,12,1.0,0.0,M,0.0,M,,*6D
$GPGSA,A,3,01,02,03,04,05,06,07,08,09,10,11,12,1.0,1.0,1.0*30
$GPRMC,205559.638,A,5024.346,N,03036.747,E,009.7,128.1,100325,000.0,W*78
$GPGGA,205600.638,5024.344,N,03036.751,E,1,12,1.0,0.0,M,0.0,M,,*67
$GPGSA,A,3,01,02,03,04,05,06,07,08,09,10,11,12,1.0,1.0,1.0*30
$GPRMC,205600.638,A,5024.344,N,03036.751,E,009.7,128.1,100325,000.0,W*72
$GPGGA,205601.638,5024.343,N,03036.754,E,1,12,1.0,0.0,M,0.0,M,,*64
$GPGSA,A,3,01,02,03,04,05,06,07,08,09,10,11,12,1.0,1.0,1.0*30
$GPRMC,205601.638,A,5024.343,N,03036.754,E,009.7,128.1,100325,000.0,W*71
$GPGGA,205602.638,5024.341,N,03036.757,E,1,12,1.0,0.0,M,0.0,M,,*66
$GPGSA,A,3,01,02,03,04,05,06,07,08,09,10,11,12,1.0,1.0,1.0*30
$GPRMC,205602.638,A,5024.341,N,03036.757,E,009.7,128.1,100325,000.0,W*73
$GPGGA,205603.638,5024.339,N,03036.761,E,1,12,1.0,0.0,M,0.0,M,,*6D
$GPGSA,A,3,01,02,03,04,05,06,07,08,09,10,11,12,1.0,1.0,1.0*30
$GPRMC,205603.638,A,5024.339,N,03036.761,E,009.7,136.2,100325,000.0,W*74
$GPGGA,205604.638,5024.337,N,03036.764,E,1,12,1.0,0.0,M,0.0,M,,*61
$GPGSA,A,3,01,02,03,04,05,06,07,08,09,10,11,12,1.0,1.0,1.0*30
$GPRMC,205604.638,A,5024.337,N,03036.764,E,009.7,136.2,100325,000.0,W*78
$GPGGA,205605.638,5024.335,N,03036.766,E,1,12,1.0,0.0,M,0.0,M,,*60
$GPGSA,A,3,01,02,03,04,05,06,07,08,09,10,11,12,1.0,1.0,1.0*30
$GPRMC,205605.638,A,5024.335,N,03036.766,E,009.7,136.2,100325,000.0,W*79
$GPGGA,205606.638,5024.334,N,03036.769,E,1,12,1.0,0.0,M,0.0,M,,*6D
$GPGSA,A,3,01,02,03,04,05,06,07,08,09,10,11,12,1.0,1.0,1.0*30
$GPRMC,205606.638,A,5024.334,N,03036.769,E,009.7,136.2,100325,000.0,W*74
$GPGGA,205607.638,5024.332,N,03036.772,E,1,12,1.0,0.0,M,0.0,M,,*60
$GPGSA,A,3,01,02,03,04,05,06,07,08,09,10,11,12,1.0,1.0,1.0*30
$GPRMC,205607.638,A,5024.332,N,03036.772,E,009.7,136.2,100325,000.0,W*79
$GPGGA,205608.638,5024.330,N,03036.775,E,1,12,1.0,0.0,M,0.0,M,,*6A
$GPGSA,A,3,01,02,03,04,05,06,07,08,09,10,11,12,1.0,1.0,1.0*30
$GPRMC,205608.638,A,5024.330,N,03036.775,E,009.7,136.2,100325,000.0,W*73
$GPGGA,205609.638,5024.328,N,03036.778,E,1,12,1.0,0.0,M,0.0,M,,*6F
$GPGSA,A,3,01,02,03,04,05,06,07,08,09,10,11,12,1.0,1.0,1.0*30
$GPRMC,205609.638,A,5024.328,N,03036.778,E,009.7,136.2,100325,000.0,W*76
$GPGGA,205610.638,5024.326,N,03036.781,E,1,12,1.0,0.0,M,0.0,M,,*6F
$GPGSA,A,3,01,02,03,04,05,06,07,08,09,10,11,12,1.0,1.0,1.0*30
$GPRMC,205610.638,A,5024.326,N,03036.781,E,009.7,136.2,100325,000.0,W*76
$GPGGA,205611.638,5024.324,N,03036.784,E,1,12,1.0,0.0,M,0.0,M,,*69
$GPGSA,A,3,01,02,03,04,05,06,07,08,09,10,11,12,1.0,1.0,1.0*30
$GPRMC,205611.638,A,5024.324,N,03036.784,E,009.7,136.2,100325,000.0,W*70
$GPGGA,205612.638,5024.322,N,03036.787,E,1,12,1.0,0.0,M,0.0,M,,*6F
$GPGSA,A,3,01,02,03,04,05,06,07,08,09,10,11,12,1.0,1.0,1.0*30
$GPRMC,205612.638,A,5024.322,N,03036.787,E,009.7,136.2,100325,000.0,W*76
$GPGGA,205613.638,5024.320,N,03036.790,E,1,12,1.0,0.0,M,0.0,M,,*6A
$GPGSA,A,3,01,02,03,04,05,06,07,08,09,10,11,12,1.0,1.0,1.0*30
$GPRMC,205613.638,A,5024.320,N,03036.790,E,009.7,136.2,100325,000.0,W*73
$GPGGA,205614.638,5024.318,N,03036.793,E,1,12,1.0,0.0,M,0.0,M,,*65
$GPGSA,A,3,01,02,03,04,05,06,07,08,09,10,11,12,1.0,1.0,1.0*30
$GPRMC,205614.638,A,5024.318,N,03036.793,E,009.7,143.0,100325,000.0,W*7C
$GPGGA,205615.638,5024.316,N,03036.795,E,1,12,1.0,0.0,M,0.0,M,,*6C
$GPGSA,A,3,01,02,03,04,05,06,07,08,09,10,11,12,1.0,1.0,1.0*30
$GPRMC,205615.638,A,5024.316,N,03036.795,E,009.7,143.0,100325,000.0,W*75
$GPGGA,205616.638,5024.314,N,03036.798,E,1,12,1.0,0.0,M,0.0,M,,*60
$GPGSA,A,3,01,02,03,04,05,06,07,08,09,10,11,12,1.0,1.0,1.0*30
$GPRMC,205616.638,A,5024.314,N,03036.798,E,009.7,143.0,100325,000.0,W*79
$GPGGA,205617.638,5024.311,N,03036.800,E,1,12,1.0,0.0,M,0.0,M,,*6A
$GPGSA,A,3,01,02,03,04,05,06,07,08,09,10,11,12,1.0,1.0,1.0*30
$GPRMC,205617.638,A,5024.311,N,03036.800,E,009.7,143.0,100325,000.0,W*73
$GPGGA,205618.638,5024.309,N,03036.803,E,1,12,1.0,0.0,M,0.0,M,,*6F
$GPGSA,A,3,01,02,03,04,05,06,07,08,09,10,11,12,1.0,1.0,1.0*30
$GPRMC,205618.638,A,5024.309,N,03036.803,E,009.7,143.0,100325,000.0,W*76
$GPGGA,205619.638,5024.307,N,03036.806,E,1,12,1.0,0.0,M,0.0,M,,*65
$GPGSA,A,3,01,02,03,04,05,06,07,08,09,10,11,12,1.0,1.0,1.0*30
$GPRMC,205619.638,A,5024.307,N,03036.806,E,009.7,143.0,100325,000.0,W*7C
$GPGGA,205620.638,5024.305,N,03036.808,E,1,12,1.0,0.0,M,0.0,M,,*63
$GPGSA,A,3,01,02,03,04,05,06,07,08,09,10,11,12,1.0,1.0,1.0*30
$GPRMC,205620.638,A,5024.305,N,03036.808,E,009.7,143.0,100325,000.0,W*7A
$GPGGA,205621.638,5024.303,N,03036.811,E,1,12,1.0,0.0,M,0.0,M,,*6C
$GPGSA,A,3,01,02,03,04,05,06,07,08,09,10,11,12,1.0,1.0,1.0*30
$GPRMC,205621.638,A,5024.303,N,03036.811,E,009.7,143.0,100325,000.0,W*75
$GPGGA,205622.638,5024.301,N,03036.813,E,1,12,1.0,0.0,M,0.0,M,,*6F
$GPGSA,A,3,01,02,03,04,05,06,07,08,09,10,11,12,1.0,1.0,1.0*30
$GPRMC,205622.638,A,5024.301,N,03036.813,E,009.7,143.4,100325,000.0,W*72
$GPGGA,205623.638,5024.299,N,03036.816,E,1,12,1.0,0.0,M,0.0,M,,*6B
$GPGSA,A,3,01,02,03,04,05,06,07,08,09,10,11,12,1.0,1.0,1.0*30
$GPRMC,205623.638,A,5024.299,N,03036.816,E,009.7,143.4,100325,000.0,W*76
$GPGGA,205624.638,5024.296,N,03036.818,E,1,12,1.0,0.0,M,0.0,M,,*6D
$GPGSA,A,3,01,02,03,04,05,06,07,08,09,10,11,12,1.0,1.0,1.0*30
$GPRMC,205624.638,A,5024.296,N,03036.818,E,009.7,143.4,100325,000.0,W*70
$GPGGA,205625.638,5024.294,N,03036.821,E,1,12,1.0,0.0,M,0.0,M,,*64
$GPGSA,A,3,01,02,03,04,05,06,07,08,09,10,11,12,1.0,1.0,1.0*30
$GPRMC,205625.638,A,5024.294,N,03036.821,E,009.7,143.4,100325,000.0,W*79
$GPGGA,205626.638,5024.292,N,03036.823,E,1,12,1.0,0.0,M,0.0,M,,*63
$GPGSA,A,3,01,02,03,04,05,06,07,08,09,10,11,12,1.0,1.0,1.0*30
$GPRMC,205626.638,A,5024.292,N,03036.823,E,009.7,143.4,100325,000.0,W*7E
$GPGGA,205627.638,5024.290,N,03036.826,E,1,12,1.0,0.0,M,0.0,M,,*65
$GPGSA,A,3,01,02,03,04,05,06,07,08,09,10,11,12,1.0,1.0,1.0*30
$GPRMC,205627.638,A,5024.290,N,03036.826,E,009.7,143.4,100325,000.0,W*78
$GPGGA,205628.638,5024.288,N,03036.828,E,1,12,1.0,0.0,M,0.0,M,,*6D
$GPGSA,A,3,01,02,03,04,05,06,07,08,09,10,11,12,1.0,1.0,1.0*30
$GPRMC,205628.638,A,5024.288,N,03036.828,E,009.7,151.0,100325,000.0,W*77
$GPGGA,205629.638,5024.285,N,03036.830,E,1,12,1.0,0.0,M,0.0,M,,*68
$GPGSA,A,3,01,02,03,04,05,06,07,08,09,10,11,12,1.0,1.0,1.0*30
$GPRMC,205629.638,A,5024.285,N,03036.830,E,009.7,151.0,100325,000.0,W*72
$GPGGA,205630.638,5024.283,N,03036.832,E,1,12,1.0,0.0,M,0.0,M,,*64
$GPGSA,A,3,01,02,03,04,05,06,07,08,09,10,11,12,1.0,1.0,1.0*30
$GPRMC,205630.638,A,5024.283,N,03036.832,E,009.7,151.0,100325,000.0,W*7E
$GPGGA,205631.638,5024.281,N,03036.834,E,1,12,1.0,0.0,M,0.0,M,,*61
$GPGSA,A,3,01,02,03,04,05,06,07,08,09,10,11,12,1.0,1.0,1.0*30
$GPRMC,205631.638,A,5024.281,N,03036.834,E,009.7,151.0,100325,000.0,W*7B
$GPGGA,205632.638,5024.278,N,03036.837,E,1,12,1.0,0.0,M,0.0,M,,*67
$GPGSA,A,3,01,02,03,04,05,06,07,08,09,10,11,12,1.0,1.0,1.0*30
$GPRMC,205632.638,A,5024.278,N,03036.837,E,009.7,151.0,100325,000.0,W*7D
$GPGGA,205633.638,5024.276,N,03036.839,E,1,12,1.0,0.0,M,0.0,M,,*66
$GPGSA,A,3,01,02,03,04,05,06,07,08,09,10,11,12,1.0,1.0,1.0*30
$GPRMC,205633.638,A,5024.276,N,03036.839,E,009.7,151.0,100325,000.0,W*7C
$GPGGA,205634.638,5024.274,N,03036.841,E,1,12,1.0,0.0,M,0.0,M,,*6C
$GPGSA,A,3,01,02,03,04,05,06,07,08,09,10,11,12,1.0,1.0,1.0*30
$GPRMC,205634.638,A,5024.274,N,03036.841,E,009.7,151.0,100325,000.0,W*76
$GPGGA,205635.638,5024.271,N,03036.843,E,1,12,1.0,0.0,M,0.0,M,,*6A
$GPGSA,A,3,01,02,03,04,05,06,07,08,09,10,11,12,1.0,1.0,1.0*30
$GPRMC,205635.638,A,5024.271,N,03036.843,E,009.7,151.0,100325,000.0,W*70
$GPGGA,205636.638,5024.269,N,03036.845,E,1,12,1.0,0.0,M,0.0,M,,*66
$GPGSA,A,3,01,02,03,04,05,06,07,08,09,10,11,12,1.0,1.0,1.0*30
$GPRMC,205636.638,A,5024.269,N,03036.845,E,009.7,151.0,100325,000.0,W*7C
$GPGGA,205637.638,5024.266,N,03036.847,E,1,12,1.0,0.0,M,0.0,M,,*6A
$GPGSA,A,3,01,02,03,04,05,06,07,08,09,10,11,12,1.0,1.0,1.0*30
$GPRMC,205637.638,A,5024.266,N,03036.847,E,009.7,151.0,100325,000.0,W*70
$GPGGA,205638.638,5024.264,N,03036.849,E,1,12,1.0,0.0,M,0.0,M,,*69
$GPGSA,A,3,01,02,03,04,05,06,07,08,09,10,11,12,1.0,1.0,1.0*30
$GPRMC,205638.638,A,5024.264,N,03036.849,E,009.7,151.0,100325,000.0,W*73
$GPGGA,205639.638,5024.262,N,03036.851,E,1,12,1.0,0.0,M,0.0,M,,*67
$GPGSA,A,3,01,02,03,04,05,06,07,08,09,10,11,12,1.0,1.0,1.0*30
$GPRMC,205639.638,A,5024.262,N,03036.851,E,009.7,151.0,100325,000.0,W*7D
$GPGGA,205640.638,5024.259,N,03036.853,E,1,12,1.0,0.0,M,0.0,M,,*63
$GPGSA,A,3,01,02,03,04,05,06,07,08,09,10,11,12,1.0,1.0,1.0*30
$GPRMC,205640.638,A,5024.259,N,03036.853,E,009.7,151.0,100325,000.0,W*79
$GPGGA,205641.638,5024.257,N,03036.855,E,1,12,1.0,0.0,M,0.0,M,,*6A
$GPGSA,A,3,01,02,03,04,05,06,07,08,09,10,11,12,1.0,1.0,1.0*30
$GPRMC,205641.638,A,5024.257,N,03036.855,E,009.7,151.0,100325,000.0,W*70
$GPGGA,205642.638,5024.255,N,03036.857,E,1,12,1.0,0.0,M,0.0,M,,*69
$GPGSA,A,3,01,02,03,04,05,06,07,08,09,10,11,12,1.0,1.0,1.0*30
$GPRMC,205642.638,A,5024.255,N,03036.857,E,009.7,151.0,100325,000.0,W*73
$GPGGA,205643.638,5024.252,N,03036.859,E,1,12,1.0,0.0,M,0.0,M,,*61
$GPGSA,A,3,01,02,03,04,05,06,07,08,09,10,11,12,1.0,1.0,1.0*30
$GPRMC,205643.638,A,5024.252,N,03036.859,E,009.7,159.0,100325,000.0,W*73
$GPGGA,205644.638,5024.250,N,03036.861,E,1,12,1.0,0.0,M,0.0,M,,*6F
$GPGSA,A,3,01,02,03,04,05,06,07,08,09,10,11,12,1.0,1.0,1.0*30
$GPRMC,205644.638,A,5024.250,N,03036.861,E,009.7,159.0,100325,000.0,W*7D
$GPGGA,205645.638,5024.247,N,03036.862,E,1,12,1.0,0.0,M,0.0,M,,*6B
$GPGSA,A,3,01,02,03,04,05,06,07,08,09,10,11,12,1.0,1.0,1.0*30
$GPRMC,205645.638,A,5024.247,N,03036.862,E,009.7,159.0,100325,000.0,W*79
$GPGGA,205646.638,5024.245,N,03036.864,E,1,12,1.0,0.0,M,0.0,M,,*6C
$GPGSA,A,3,01,02,03,04,05,06,07,08,09,10,11,12,1.0,1.0,1.0*30
$GPRMC,205646.638,A,5024.245,N,03036.864,E,009.7,159.0,100325,000.0,W*7E
$GPGGA,205647.638,5024.242,N,03036.865,E,1,12,1.0,0.0,M,0.0,M,,*6B
$GPGSA,A,3,01,02,03,04,05,06,07,08,09,10,11,12,1.0,1.0,1.0*30
$GPRMC,205647.638,A,5024.242,N,03036.865,E,009.7,159.0,100325,000.0,W*79
$GPGGA,205648.638,5024.240,N,03036.867,E,1,12,1.0,0.0,M,0.0,M,,*64
$GPGSA,A,3,01,02,03,04,05,06,07,08,09,10,11,12,1.0,1.0,1.0*30
$GPRMC,205648.638,A,5024.240,N,03036.867,E,009.7,159.0,100325,000.0,W*76
$GPGGA,205649.638,5024.237,N,03036.868,E,1,12,1.0,0.0,M,0.0,M,,*6A
$GPGSA,A,3,01,02,03,04,05,06,07,08,09,10,11,12,1.0,1.0,1.0*30
$GPRMC,205649.638,A,5024.237,N,03036.868,E,009.7,159.0,100325,000.0,W*78
$GPGGA,205650.638,5024.235,N,03036.870,E,1,12,1.0,0.0,M,0.0,M,,*69
$GPGSA,A,3,01,02,03,04,05,06,07,08,09,10,11,12,1.0,1.0,1.0*30
$GPRMC,205650.638,A,5024.235,N,03036.870,E,009.7,159.0,100325,000.0,W*7B
$GPGGA,205651.638,5024.232,N,03036.871,E,1,12,1.0,0.0,M,0.0,M,,*6E
$GPGSA,A,3,01,02,03,04,05,06,07,08,09,10,11,12,1.0,1.0,1.0*30
$GPRMC,205651.638,A,5024.232,N,03036.871,E,009.7,159.0,100325,000.0,W*7C
$GPGGA,205652.638,5024.230,N,03036.873,E,1,12,1.0,0.0,M,0.0,M,,*6D
$GPGSA,A,3,01,02,03,04,05,06,07,08,09,10,11,12,1.0,1.0,1.0*30
$GPRMC,205652.638,A,5024.230,N,03036.873,E,009.7,159.0,100325,000.0,W*7F
$GPGGA,205653.638,5024.227,N,03036.874,E,1,12,1.0,0.0,M,0.0,M,,*6D
$GPGSA,A,3,01,02,03,04,05,06,07,08,09,10,11,12,1.0,1.0,1.0*30
$GPRMC,205653.638,A,5024.227,N,03036.874,E,009.7,159.0,100325,000.0,W*7F
$GPGGA,205654.638,5024.225,N,03036.876,E,1,12,1.0,0.0,M,0.0,M,,*6A
$GPGSA,A,3,01,02,03,04,05,06,07,08,09,10,11,12,1.0,1.0,1.0*30
$GPRMC,205654.638,A,5024.225,N,03036.876,E,009.7,159.0,100325,000.0,W*78
$GPGGA,205655.638,5024.222,N,03036.877,E,1,12,1.0,0.0,M,0.0,M,,*6D
$GPGSA,A,3,01,02,03,04,05,06,07,08,09,10,11,12,1.0,1.0,1.0*30
$GPRMC,205655.638,A,5024.222,N,03036.877,E,009.7,159.0,100325,000.0,W*7F
$GPGGA,205656.638,5024.220,N,03036.879,E,1,12,1.0,0.0,M,0.0,M,,*62
$GPGSA,A,3,01,02,03,04,05,06,07,08,09,10,11,12,1.0,1.0,1.0*30
$GPRMC,205656.638,A,5024.220,N,03036.879,E,009.7,166.4,100325,000.0,W*78
$GPGGA,205657.638,5024.217,N,03036.880,E,1,12,1.0,0.0,M,0.0,M,,*61
$GPGSA,A,3,01,02,03,04,05,06,07,08,09,10,11,12,1.0,1.0,1.0*30
$GPRMC,205657.638,A,5024.217,N,03036.880,E,009.7,166.4,100325,000.0,W*7B
$GPGGA,205658.638,5024.214,N,03036.881,E,1,12,1.0,0.0,M,0.0,M,,*6C
$GPGSA,A,3,01,02,03,04,05,06,07,08,09,10,11,12,1.0,1.0,1.0*30
$GPRMC,205658.638,A,5024.214,N,03036.881,E,009.7,166.4,100325,000.0,W*76
$GPGGA,205659.638,5024.212,N,03036.882,E,1,12,1.0,0.0,M,0.0,M,,*68
$GPGSA,A,3,01,02,03,04,05,06,07,08,09,10,11,12,1.0,1.0,1.0*30
$GPRMC,205659.638,A,5024.212,N,03036.882,E,009.7,166.4,100325,000.0,W*72
$GPGGA,205700.638,5024.209,N,03036.883,E,1,12,1.0,0.0,M,0.0,M,,*6E
$GPGSA,A,3,01,02,03,04,05,06,07,08,09,10,11,12,1.0,1.0,1.0*30
$GPRMC,205700.638,A,5024.209,N,03036.883,E,009.7,166.4,100325,000.0,W*74
$GPGGA,205701.638,5024.206,N,03036.884,E,1,12,1.0,0.0,M,0.0,M,,*67
$GPGSA,A,3,01,02,03,04,05,06,07,08,09,10,11,12,1.0,1.0,1.0*30
$GPRMC,205701.638,A,5024.206,N,03036.884,E,009.7,166.4,100325,000.0,W*7D
$GPGGA,205702.638,5024.204,N,03036.885,E,1,12,1.0,0.0,M,0.0,M,,*67
$GPGSA,A,3,01,02,03,04,05,06,07,08,09,10,11,12,1.0,1.0,1.0*30
$GPRMC,205702.638,A,5024.204,N,03036.885,E,009.7,166.4,100325,000.0,W*7D
$GPGGA,205703.638,5024.201,N,03036.886,E,1,12,1.0,0.0,M,0.0,M,,*60
$GPGSA,A,3,01,02,03,04,05,06,07,08,09,10,11,12,1.0,1.0,1.0*30
$GPRMC,205703.638,A,5024.201,N,03036.886,E,009.7,166.4,100325,000.0,W*7A
$GPGGA,205704.638,5024.199,N,03036.887,E,1,12,1.0,0.0,M,0.0,M,,*64
$GPGSA,A,3,01,02,03,04,05,06,07,08,09,10,11,12,1.0,1.0,1.0*30
$GPRMC,205704.638,A,5024.199,N,03036.887,E,009.7,166.4,100325,000.0,W*7E
$GPGGA,205705.638,5024.196,N,03036.888,E,1,12,1.0,0.0,M,0.0,M,,*65
$GPGSA,A,3,01,02,03,04,05,06,07,08,09,10,11,12,1.0,1.0,1.0*30
$GPRMC,205705.638,A,5024.196,N,03036.888,E,009.7,166.4,100325,000.0,W*7F
$GPGGA,205706.638,5024.193,N,03036.889,E,1,12,1.0,0.0,M,0.0,M,,*62
$GPGSA,A,3,01,02,03,04,05,06,07,08,09,10,11,12,1.0,1.0,1.0*30
$GPRMC,205706.638,A,5024.193,N,03036.889,E,009.7,166.4,100325,000.0,W*78
$GPGGA,205707.638,5024.191,N,03036.890,E,1,12,1.0,0.0,M,0.0,M,,*69
$GPGSA,A,3,01,02,03,04,05,06,07,08,09,10,11,12,1.0,1.0,1.0*30
$GPRMC,205707.638,A,5024.191,N,03036.890,E,009.7,166.4,100325,000.0,W*73
$GPGGA,205708.638,5024.188,N,03036.891,E,1,12,1.0,0.0,M,0.0,M,,*6F
$GPGSA,A,3,01,02,03,04,05,06,07,08,09,10,11,12,1.0,1.0,1.0*30
$GPRMC,205708.638,A,5024.188,N,03036.891,E,009.7,166.4,100325,000.0,W*75
$GPGGA,205709.638,5024.185,N,03036.892,E,1,12,1.0,0.0,M,0.0,M,,*60
$GPGSA,A,3,01,02,03,04,05,06,07,08,09,10,11,12,1.0,1.0,1.0*30
$GPRMC,205709.638,A,5024.185,N,03036.892,E,009.7,173.8,100325,000.0,W*72
$GPGGA,205710.638,5024.183,N,03036.892,E,1,12,1.0,0.0,M,0.0,M,,*6E
$GPGSA,A,3,01,02,03,04,05,06,07,08,09,10,11,12,1.0,1.0,1.0*30
$GPRMC,205710.638,A,5024.183,N,03036.892,E,009.7,173.8,100325,000.0,W*7C
$GPGGA,205711.638,5024.180,N,03036.893,E,1,12,1.0,0.0,M,0.0,M,,*6D
$GPGSA,A,3,01,02,03,04,05,06,07,08,09,10,11,12,1.0,1.0,1.0*30
$GPRMC,205711.638,A,5024.180,N,03036.893,E,009.7,173.8,100325,000.0,W*7F
$GPGGA,205712.638,5024.177,N,03036.893,E,1,12,1.0,0.0,M,0.0,M,,*66
$GPGSA,A,3,01,02,03,04,05,06,07,08,09,10,11,12,1.0,1.0,1.0*30
$GPRMC,205712.638,A,5024.177,N,03036.893,E,009.7,173.8,100325,000.0,W*74
$GPGGA,205713.638,5024.175,N,03036.894,E,1,12,1.0,0.0,M,0.0,M,,*62
$GPGSA,A,3,01,02,03,04,05,06,07,08,09,10,11,12,1.0,1.0,1.0*30
$GPRMC,205713.638,A,5024.175,N,03036.894,E,009.7,173.8,100325,000.0,W*70
$GPGGA,205714.638,5024.172,N,03036.894,E,1,12,1.0,0.0,M,0.0,M,,*62
$GPGSA,A,3,01,02,03,04,05,06,07,08,09,10,11,12,1.0,1.0,1.0*30
$GPRMC,205714.638,A,5024.172,N,03036.894,E,009.7,173.8,100325,000.0,W*70
$GPGGA,205715.638,5024.169,N,03036.894,E,1,12,1.0,0.0,M,0.0,M,,*69
$GPGSA,A,3,01,02,03,04,05,06,07,08,09,10,11,12,1.0,1.0,1.0*30
$GPRMC,205715.638,A,5024.169,N,03036.894,E,009.7,173.8,100325,000.0,W*7B
$GPGGA,205716.638,5024.167,N,03036.895,E,1,12,1.0,0.0,M,0.0,M,,*65
$GPGSA,A,3,01,02,03,04,05,06,07,08,09,10,11,12,1.0,1.0,1.0*30
$GPRMC,205716.638,A,5024.167,N,03036.895,E,009.7,173.8,100325,000.0,W*77
$GPGGA,205717.638,5024.164,N,03036.895,E,1,12,1.0,0.0,M,0.0,M,,*67
$GPGSA,A,3,01,02,03,04,05,06,07,08,09,10,11,12,1.0,1.0,1.0*30
$GPRMC,205717.638,A,5024.164,N,03036.895,E,009.7,173.8,100325,000.0,W*75
$GPGGA,205718.638,5024.161,N,03036.896,E,1,12,1.0,0.0,M,0.0,M,,*6E
$GPGSA,A,3,01,02,03,04,05,06,07,08,09,10,11,12,1.0,1.0,1.0*30
$GPRMC,205718.638,A,5024.161,N,03036.896,E,009.7,173.8,100325,000.0,W*7C
$GPGGA,205719.638,5024.159,N,03036.896,E,1,12,1.0,0.0,M,0.0,M,,*64
$GPGSA,A,3,01,02,03,04,05,06,07,08,09,10,11,12,1.0,1.0,1.0*30
$GPRMC,205719.638,A,5024.159,N,03036.896,E,009.7,173.8,100325,000.0,W*76
$GPGGA,205720.638,5024.156,N,03036.897,E,1,12,1.0,0.0,M,0.0,M,,*60
$GPGSA,A,3,01,02,03,04,05,06,07,08,09,10,11,12,1.0,1.0,1.0*30
$GPRMC,205720.638,A,5024.156,N,03036.897,E,009.7,173.8,100325,000.0,W*72
$GPGGA,205721.638,5024.153,N,03036.897,E,1,12,1.0,0.0,M,0.0,M,,*64
$GPGSA,A,3,01,02,03,04,05,06,07,08,09,10,11,12,1.0,1.0,1.0*30
$GPRMC,205721.638,A,5024.153,N,03036.897,E,009.7,173.8,100325,000.0,W*76
$GPGGA,205722.638,5024.151,N,03036.898,E,1,12,1.0,0.0,M,0.0,M,,*6A
$GPGSA,A,3,01,02,03,04,05,06,07,08,09,10,11,12,1.0,1.0,1.0*30
$GPRMC,205722.638,A,5024.151,N,03036.898,E,009.7,173.8,100325,000.0,W*78
$GPGGA,205723.638,5024.148,N,03036.898,E,1,12,1.0,0.0,M,0.0,M,,*63
$GPGSA,A,3,01,02,03,04,05,06,07,08,09,10,11,12,1.0,1.0,1.0*30
$GPRMC,205723.638,A,5024.148,N,03036.898,E,009.7,173.8,100325,000.0,W*71
$GPGGA,205724.638,5024.145,N,03036.899,E,1,12,1.0,0.0,M,0.0,M,,*68
$GPGSA,A,3,01,02,03,04,05,06,07,08,09,10,11,12,1.0,1.0,1.0*30
$GPRMC,205724.638,A,5024.145,N,03036.899,E,009.7,173.8,100325,000.0,W*7A
$GPGGA,205725.638,5024.143,N,03036.899,E,1,12,1.0,0.0,M,0.0,M,,*6F
$GPGSA,A,3,01,02,03,04,05,06,07,08,09,10,11,12,1.0,1.0,1.0*30
$GPRMC,205725.638,A,5024.143,N,03036.899,E,033.0,175.1,100325,000.0,W*7C
$GPGGA,205726.638,5024.133,N,03036.900,E,1,12,1.0,0.0,M,0.0,M,,*6A
$GPGSA,A,3,01,02,03,04,05,06,07,08,09,10,11,12,1.0,1.0,1.0*30
$GPRMC,205726.638,A,5024.133,N,03036.900,E,033.0,175.1,100325,000.0,W*79
$GPGGA,205727.638,5024.124,N,03036.901,E,1,12,1.0,0.0,M,0.0,M,,*6C
$GPGSA,A,3,01,02,03,04,05,06,07,08,09,10,11,12,1.0,1.0,1.0*30
$GPRMC,205727.638,A,5024.124,N,03036.901,E,033.0,175.1,100325,000.0,W*7F
$GPGGA,205728.638,5024.115,N,03036.903,E,1,12,1.0,0.0,M,0.0,M,,*63
$GPGSA,A,3,01,02,03,04,05,06,07,08,09,10,11,12,1.0,1.0,1.0*30
$GPRMC,205728.638,A,5024.115,N,03036.903,E,033.0,175.1,100325,000.0,W*70
$GPGGA,205729.638,5024.106,N,03036.904,E,1,12,1.0,0.0,M,0.0,M,,*67
$GPGSA,A,3,01,02,03,04,05,06,07,08,09,10,11,12,1.0,1.0,1.0*30
$GPRMC,205729.638,A,5024.106,N,03036.904,E,033.0,175.1,100325,000.0,W*74
$GPGGA,205730.638,5024.097,N,03036.905,E,1,12,1.0,0.0,M,0.0,M,,*67
$GPGSA,A,3,01,02,03,04,05,06,07,08,09,10,11,12,1.0,1.0,1.0*30
$GPRMC,205730.638,A,5024.097,N,03036.905,E,033.0,175.1,100325,000.0,W*74
